,uncleaned_index,item_name,item_address,lat,lon,OGaddress,index,review_score,categories,url
0,0,Barrie Centennial Park,"65 Lakeshore Drive, Barrie, Ontario",44.381115846023285,-79.69036375746188,"65 Lakeshore Drive, Barrie, Ontario L4N 2M6 Canada",T0,4.3,"['Parks', 'Parks']",https://www.tripadvisor.ca/Attraction_Review-g154980-d3222860-Reviews-Barrie_Centennial_Park-Barrie_Ontario.html
1,1,Flying Monkeys Craft Brewery,"107 Dunlop St, Barrie, Ontario",44.3795395,-79.7113748,"107 Dunlop St E, Barrie, Ontario L4M 1A6 Canada",T1,4.4,"['Breweries', 'Breweries']",https://www.tripadvisor.ca/Attraction_Review-g154980-d3350465-Reviews-Flying_Monkeys_Craft_Brewery-Barrie_Ontario.html
2,2,Sunnidale Park Arboretum,"Sunnidale Road &, Barrie, Ontario",44.4012731,-79.7245568,"Sunnidale Road & Cundles Road West, Barrie, Ontario Canada",T2,4.6,"['Parks', 'Parks']",https://www.tripadvisor.ca/Attraction_Review-g154980-d6674284-Reviews-Sunnidale_Park_Arboretum-Barrie_Ontario.html
3,3,Spirit Catcher Sculpture,"24 Maple Ave, Barrie, Ontario",44.388147576923075,-79.69083767692308,"24 Maple Ave, Barrie, Ontario L4N 6T4 Canada",T3,4.3,"['Points of Interest & Landmarks', 'Points of Interest & Landmarks']",https://www.tripadvisor.ca/Attraction_Review-g154980-d4504641-Reviews-Spirit_Catcher_Sculpture-Barrie_Ontario.html
4,5,Ardagh Bluffs,"Ardagh Road &, Barrie, Ontario",44.3563883,-79.7084034,"Ardagh Road & Mapleview Drive, Barrie, Ontario L4N 5V2 Canada",T4,4.4,"['Nature & Wildlife Areas', 'Nature & Wildlife Areas']",https://www.tripadvisor.ca/Attraction_Review-g154980-d3681269-Reviews-Ardagh_Bluffs-Barrie_Ontario.html
5,6,Splashon Wibit Water Park,"55 Lakeshore Drive, Barrie, Ontario",44.385379650000004,-79.69038405,"55 Lakeshore Drive Centennial Beach, Barrie, Ontario L4M 4T5 Canada",T5,5.0,"['Water Parks', 'Water Parks']",https://www.tripadvisor.ca/Attraction_Review-g154980-d14990436-Reviews-Splashon_Wibit_Water_Park-Barrie_Ontario.html
6,7,Chappell Farms,"617 Penetanguishene Rd, Barrie, Ontario",44.4004421,-79.6492199,"617 Penetanguishene Rd Hwy 11 and County Road 93, Barrie, Ontario L4M 4Y8 Canada",T6,3.8,"['Farms', 'Farms']",https://www.tripadvisor.ca/Attraction_Review-g154980-d2254466-Reviews-Chappell_Farms-Barrie_Ontario.html
7,8,Studio 737,"505 Bryne Dr, Barrie, Ontario",44.33174197395418,-79.689097535866,"505 Bryne Dr, Barrie, Ontario L4N 9P7 Canada",T7,4.9,"['Art Galleries', 'Art Galleries']",https://www.tripadvisor.ca/Attraction_Review-g154980-d16845492-Reviews-Studio_737-Barrie_Ontario.html
8,9,Barrie Antiques Centre,"272 Innisfil St, Barrie, Ontario",44.372639,-79.6940738,"272 Innisfil St, Barrie, Ontario L4N 3G1 Canada",T8,4.7,"['Antique Stores', 'Antique Stores']",https://www.tripadvisor.ca/Attraction_Review-g154980-d6211346-Reviews-Barrie_Antiques_Centre-Barrie_Ontario.html
9,10,Ontario Travel Information Centre - Barrie,"21 Mapleview Dr, Barrie, Ontario",44.3400782,-79.6861197,"21 Mapleview Dr E, Barrie, Ontario L4N 9A9 Canada",T9,4.6,"['Visitor Centres', 'Visitor Centres']",https://www.tripadvisor.ca/Attraction_Review-g154980-d8569487-Reviews-Ontario_Travel_Information_Centre_Barrie-Barrie_Ontario.html
10,12,Johnson's Beach,"2 Johnson Street, Barrie, Ontario",44.3933953,-79.6573918,"2 Johnson Street, Barrie, Ontario L4M 1E1 Canada",T10,3.9,"['Beaches', 'Beaches']",https://www.tripadvisor.ca/Attraction_Review-g154980-d14048660-Reviews-Johnson_s_Beach-Barrie_Ontario.html
11,14,Maclaren Art Centre,"37 Mulcaster St, Barrie, Ontario",44.3902932,-79.6853478,"37 Mulcaster St, Barrie, Ontario L4M 3M2 Canada",T11,4.2,"['Art Galleries', 'Art Galleries']",https://www.tripadvisor.ca/Attraction_Review-g154980-d3440910-Reviews-Maclaren_Art_Centre-Barrie_Ontario.html
12,15,Minet's Point Park,"10 Lismer Boulevard, Barrie, Ontario",44.3758743,-79.667133525,"10 Lismer Boulevard, Barrie, Ontario L4N 4B8 Canada",T12,4.2,"['Parks', 'Parks']",https://www.tripadvisor.ca/Attraction_Review-g154980-d14048708-Reviews-Minet_s_Point_Park-Barrie_Ontario.html
13,16,In Play Inc,"551 Bryne Dr, Barrie, Ontario",44.32844525553221,-79.68841877890807,"551 Bryne Dr, Barrie, Ontario L4N 9Y3 Canada",T13,3.1,"['Playgrounds', 'Playgrounds']",https://www.tripadvisor.ca/Attraction_Review-g154980-d3368350-Reviews-In_Play_Inc-Barrie_Ontario.html
14,17,Barrie Molson Centre,"555 Bayview Dr, Barrie, Ontario",44.337496349999995,-79.6782465144151,"555 Bayview Dr, Barrie, Ontario L4N 8Y2 Canada",T14,3.8,"['Arenas & Stadiums', 'Arenas & Stadiums']",https://www.tripadvisor.ca/Attraction_Review-g154980-d4057995-Reviews-Barrie_Molson_Centre-Barrie_Ontario.html
15,18,Tyndale Park,"45 Tyndale Rd, Barrie, Ontario",44.37396623814309,-79.64608972197315,"45 Tyndale Rd, Barrie, Ontario L4N 7T1 Canada",T15,4.7,"['Parks', 'Parks']",https://www.tripadvisor.ca/Attraction_Review-g154980-d14048711-Reviews-Tyndale_Park-Barrie_Ontario.html
16,19,Heritage Estate Winery & Cidery,"421 Penetanguishene Rd, Barrie, Ontario",44.4004421,-79.6492199,"421 Penetanguishene Rd, Barrie, Ontario L4M 0H1 Canada",T16,4.3,"['Wineries & Vineyards', 'Wineries & Vineyards']",https://www.tripadvisor.ca/Attraction_Review-g154980-d11864452-Reviews-Heritage_Estate_Winery_Cidery-Barrie_Ontario.html
17,21,Theatre by the Bay,"1 Dunlop St, Barrie, Ontario",44.3795395,-79.7113748,"1 Dunlop St E The Mady Centre for the Performing Arts, Barrie, Ontario L4M 1A2 Canada",T17,4.3,"['Theatres', 'Theatres']",https://www.tripadvisor.ca/Attraction_Review-g154980-d7224437-Reviews-Theatre_by_the_Bay-Barrie_Ontario.html
18,22,Smart Moves Play Place,"565 Bryne Dr, Barrie, Ontario",44.3271092,-79.6878419,"565 Bryne Dr Unit C, Barrie, Ontario L4N 9Y3 Canada",T18,4.4,"['Playgrounds', 'Playgrounds']",https://www.tripadvisor.ca/Attraction_Review-g154980-d6665629-Reviews-Smart_Moves_Play_Place-Barrie_Ontario.html
19,23,Grey & Simcoe Foresters Regimental Museum,"36 Mulcaster St, Barrie, Ontario",44.38999215,-79.6857741750766,"36 Mulcaster St, Barrie, Ontario L4M 3M1 Canada",T19,4.7,"['Military Museums', 'Military Museums']",https://www.tripadvisor.ca/Attraction_Review-g154980-d7197473-Reviews-Grey_Simcoe_Foresters_Regimental_Museum-Barrie_Ontario.html
20,24,Barnstormer Brewing & Distilling Co.,"3-384 Yonge St, Barrie, Ontario",44.3568011,-79.6474395,"3-384 Yonge St, Barrie, Ontario L4N 4C8 Canada",T20,4.8,"['Breweries', 'Breweries']",https://www.tripadvisor.ca/Attraction_Review-g154980-d13108765-Reviews-Barnstormer_Brewing_Distilling_Co-Barrie_Ontario.html
21,26,Five Points Theatre,"1 Dunlop St, Barrie, Ontario",44.3795395,-79.7113748,"1 Dunlop St W, Barrie, Ontario L4N 1A1 Canada",T21,3.4,"['Theatres', 'Theatres']",https://www.tripadvisor.ca/Attraction_Review-g154980-d3853705-Reviews-Five_Points_Theatre-Barrie_Ontario.html
22,28,Park Place,"100 Mapleview Drive, Barrie, Ontario",44.3400782,-79.6861197,"100 Mapleview Drive East, Barrie, Ontario L4N 9A9 Canada",T22,4.0,"['Shopping Malls', 'Shopping Malls']",https://www.tripadvisor.ca/Attraction_Review-g154980-d12337906-Reviews-Park_Place-Barrie_Ontario.html
23,29,Bayfield Mall,"Bayfield Mall 320, Barrie, Ontario",44.400566850000004,-79.70345630559979,"Bayfield Mall 320 Bayfield St, Barrie, Ontario L4M 3C1 Canada",T23,2.1,"['Shopping Malls', 'Shopping Malls']",https://www.tripadvisor.ca/Attraction_Review-g154980-d4058019-Reviews-Bayfield_Mall-Barrie_Ontario.html
24,31,The Edge Gallery,"32 Dunlop St, Barrie, Ontario",44.3795395,-79.7113748,"32 Dunlop St W, Barrie, Ontario L4N 1A2 Canada",T24,4.0,"['Art Galleries', 'Art Galleries']",https://www.tripadvisor.ca/Attraction_Review-g154980-d8029049-Reviews-The_Edge_Gallery-Barrie_Ontario.html
25,33,Tyendinaga Cavern and Caves,"2623 Harmony Road, Belleville, Ontario",44.280811461727666,-77.27821014604461,"2623 Harmony Road, Belleville, Ontario K8P 3E1 Canada",T25,4.3,"['Caverns & Caves', 'Caverns & Caves']",https://www.tripadvisor.ca/Attraction_Review-g154981-d6226961-Reviews-Tyendinaga_Cavern_and_Caves-Belleville_Ontario.html
26,37,Frink Centre Conservation Area,"381 Thrasher Rd, Belleville, Ontario",44.27629366658738,-77.34475286297305,"381 Thrasher Rd, Belleville, Ontario K0K 2V0 Canada",T26,4.7,"['Nature & Wildlife Areas', 'Nature & Wildlife Areas']",https://www.tripadvisor.ca/Attraction_Review-g154981-d6592910-Reviews-Frink_Centre_Conservation_Area-Belleville_Ontario.html
27,39,Shorelines Casino Belleville,"380 Bell Blvd, Belleville, Ontario",44.1832302,-77.4209543791406,"380 Bell Blvd, Belleville, Ontario K8P 5H8 Canada",T27,3.4,"['Casinos', 'Casinos']",https://www.tripadvisor.ca/Attraction_Review-g154981-d12860015-Reviews-Shorelines_Casino_Belleville-Belleville_Ontario.html
28,40,Riverside Park,"373 Moira St, Belleville, Ontario",44.1774112,-77.3800211,"373 Moira St W, Belleville, Ontario K8N 4Z2 Canada",T28,4.7,"['Parks', 'Parks']",https://www.tripadvisor.ca/Attraction_Review-g154981-d13306973-Reviews-Riverside_Park-Belleville_Ontario.html
29,41,Quinte Mall,"Quinte Mall 390, Belleville, Ontario",44.18909515,-77.40146619827145,"Quinte Mall 390 North Front St, Belleville, Ontario K8P 3E1 Canada",T29,3.6,"['Shopping Malls', 'Shopping Malls']",https://www.tripadvisor.ca/Attraction_Review-g154981-d10390427-Reviews-Quinte_Mall-Belleville_Ontario.html
30,42,Belleville City Hall,"169 Front St, Belleville, Ontario",44.1627513,-77.38349930000001,"169 Front St, Belleville, Ontario K8N 2Y8 Canada",T30,4.3,"['Points of Interest & Landmarks', 'Points of Interest & Landmarks']",https://www.tripadvisor.ca/Attraction_Review-g154981-d4558053-Reviews-Belleville_City_Hall-Belleville_Ontario.html
31,43,Boretski Gallery,"300 Front St, Belleville, Ontario",44.1663317,-77.3855086,"300 Front St, Belleville, Ontario K8N 2Z8 Canada",T31,4.9,"['Antique Stores', 'Antique Stores']",https://www.tripadvisor.ca/Attraction_Review-g154981-d2302222-Reviews-Boretski_Gallery-Belleville_Ontario.html
32,44,Church of St. Michael the Archangel,"296 Church St, Belleville, Ontario",44.169361103607386,-77.38359527954411,"296 Church St, Belleville, Ontario K8N 3C6 Canada",T32,4.8,"['Points of Interest & Landmarks', 'Points of Interest & Landmarks']",https://www.tripadvisor.ca/Attraction_Review-g154981-d4611582-Reviews-Church_of_St_Michael_the_Archangel-Belleville_Ontario.html
33,45,Quinte Sports & Wellness Centre,"265 Cannifton Rd, Belleville, Ontario",44.1877872,-77.38234437683762,"265 Cannifton Rd, Belleville, Ontario K8N 4V8 Canada",T33,4.5,"['Sports Complexes', 'Sports Complexes']",https://www.tripadvisor.ca/Attraction_Review-g154981-d13129291-Reviews-Quinte_Sports_Wellness_Centre-Belleville_Ontario.html
34,46,Belleville Chamber of Commerce and Visitor Centre,"5 Moira St, Belleville, Ontario",44.1774112,-77.3800211,"5 Moira St E The Log Cabin, Belleville, Ontario K8P 2S3 Canada",T34,4.7,"['Visitor Centres', 'Visitor Centres']",https://www.tripadvisor.ca/Attraction_Review-g154981-d13791969-Reviews-Belleville_Chamber_of_Commerce_and_Visitor_Centre-Belleville_Ontario.html
35,48,Quinte Antiques,"521 Dundas St, Belleville, Ontario",44.1446718,-77.4156343,"521 Dundas St W, Belleville, Ontario K8P 1B6 Canada",T35,4.2,"['Antique Stores', 'Antique Stores']",https://www.tripadvisor.ca/Attraction_Review-g154981-d4045384-Reviews-Quinte_Antiques-Belleville_Ontario.html
36,49,CAA Arena,"265 Cannifton Rd, Belleville, Ontario",44.1877872,-77.38234437683762,"265 Cannifton Rd, Belleville, Ontario K8N 4V8 Canada",T36,4.0,"['Arenas & Stadiums', 'Arenas & Stadiums']",https://www.tripadvisor.ca/Attraction_Review-g154981-d19625083-Reviews-CAA_Arena-Belleville_Ontario.html
37,50,Tri & Run Sports,"188 Front St, Belleville, Ontario",44.16325318,-77.38405742,"188 Front St, Belleville, Ontario K8N 2Y7 Canada",T37,5.0,"['Shopping Malls', 'Shopping Malls']",https://www.tripadvisor.ca/Attraction_Review-g154981-d17520628-Reviews-Tri_Run_Sports-Belleville_Ontario.html
38,51,Belleville Art Association Studio & Gallery,"392 Front St, Belleville, Ontario",44.168692070644774,-77.3860753276749,"392 Front St, Belleville, Ontario K8N 2Z8 Canada",T38,4.0,"['Art Galleries', 'Art Galleries']",https://www.tripadvisor.ca/Attraction_Review-g154981-d12589976-Reviews-Belleville_Art_Association_Studio_Gallery-Belleville_Ontario.html
39,52,The Empire Theatre,"321 Front St, Belleville, Ontario",44.167138398660704,-77.38552764792249,"321 Front St, Belleville, Ontario K8N 2Z9 Canada",T39,4.6,"['Concerts', 'Theatres', 'Concerts', 'Theatres']",https://www.tripadvisor.ca/Attraction_Review-g154981-d2038101-Reviews-The_Empire_Theatre-Belleville_Ontario.html
40,53,Black Bear Ridge Golf Club,"501 Harmony Rd, Belleville, Ontario",44.23994752552805,-77.39215546415436,"501 Harmony Rd, Belleville, Ontario K8N 5J1 Canada",T40,4.7,"['Golf Courses', 'Golf Courses']",https://www.tripadvisor.ca/Attraction_Review-g154981-d2277529-Reviews-Black_Bear_Ridge_Golf_Club-Belleville_Ontario.html
41,56,Reiki On Wheels Natural Products & Gifts,"223 Front St, Belleville, Ontario",44.16441428888889,-77.38422647222222,"223 Front St, Belleville, Ontario K8N 2Z4 Canada",T41,5.0,"['Gift & Speciality Shops', 'Gift & Speciality Shops']",https://www.tripadvisor.ca/Attraction_Review-g154981-d11918051-Reviews-Reiki_On_Wheels_Natural_Products_Gifts-Belleville_Ontario.html
42,57,Donini Chocolates,"335 Bell Blvd, Belleville, Ontario",44.18347875294118,-77.41589557647059,"335 Bell Blvd, Belleville, Ontario K8P 5H3 Canada",T42,4.2,"['Gift & Speciality Shops', 'Gift & Speciality Shops']",https://www.tripadvisor.ca/Attraction_Review-g154981-d10241980-Reviews-Donini_Chocolates-Belleville_Ontario.html
43,58,Kate's Kitchen,"271 Front St, Belleville, Ontario",44.16570464551214,-77.38485196740325,"271 Front St, Belleville, Ontario K8N 2Z6 Canada",T43,5.0,"['Gift & Speciality Shops', 'Gift & Speciality Shops']",https://www.tripadvisor.ca/Attraction_Review-g154981-d11913213-Reviews-Kate_s_Kitchen-Belleville_Ontario.html
44,88,Gage Park,"2 Wellington St, Brampton, Ontario",43.6842951,-79.7575472,"2 Wellington St W, Brampton, Ontario L6Y 4R2 Canada",T44,4.5,"['Parks', 'Parks']",https://www.tripadvisor.ca/Attraction_Review-g154982-d2535350-Reviews-Gage_Park-Brampton_Ontario.html
45,89,Donald M. Gordon Chinguacousy Park,"9050 Bramalea Rd, Brampton, Ontario",43.7258735,-79.72213457657124,"9050 Bramalea Rd, Brampton, Ontario L6S 6G7 Canada",T45,4.6,"['Parks', 'Parks']",https://www.tripadvisor.ca/Attraction_Review-g154982-d3427100-Reviews-Donald_M_Gordon_Chinguacousy_Park-Brampton_Ontario.html
46,90,Heart Lake Conservation Area,"10818 Heart Lake, Brampton, Ontario",43.7369623,-79.7819296,"10818 Heart Lake Rd, Brampton, Ontario L6Z 0B3 Canada",T46,4.2,"['Nature & Wildlife Areas', 'Nature & Wildlife Areas']",https://www.tripadvisor.ca/Attraction_Review-g154982-d4060361-Reviews-Heart_Lake_Conservation_Area-Brampton_Ontario.html
47,91,Rose Theatre Brampton,"1 Theatre Lane, Brampton, Ontario",43.687149500000004,-79.76011320098286,"1 Theatre Lane, Brampton, Ontario L6V 0A3 Canada",T47,4.6,"['Theatres', 'Theatres']",https://www.tripadvisor.ca/Attraction_Review-g154982-d4060172-Reviews-Rose_Theatre_Brampton-Brampton_Ontario.html
48,92,Professor's Lake Recreation Centre,"1660 North Park, Brampton, Ontario",43.6704598,-79.7270605,"1660 North Park Dr Bramalea Road & North Park Drive, Brampton, Ontario L6S 4B4 Canada",T48,4.3,"['Bodies of Water', 'Bodies of Water']",https://www.tripadvisor.ca/Attraction_Review-g154982-d7622762-Reviews-Professor_s_Lake_Recreation_Centre-Brampton_Ontario.html
49,93,Eldorado Park,"8520 Creditview Rd, Brampton, Ontario",43.6811064,-79.8160799,"8520 Creditview Rd, Brampton, Ontario L6Y 0G4 Canada",T49,4.1,"['Bodies of Water', 'Nature & Wildlife Areas', 'Parks', 'Bodies of Water', 'Nature & Wildlife Areas', 'Parks']",https://www.tripadvisor.ca/Attraction_Review-g154982-d8505186-Reviews-Eldorado_Park-Brampton_Ontario.html
50,94,Peel Art Gallery Museum & Archive (PAMA),"9 Wellington St, Brampton, Ontario",43.6842951,-79.7575472,"9 Wellington St E, Brampton, Ontario L6W 1Y1 Canada",T50,4.3,"['Art Museums', 'Art Museums']",https://www.tripadvisor.ca/Attraction_Review-g154982-d3675553-Reviews-Peel_Art_Gallery_Museum_Archive_PAMA-Brampton_Ontario.html
51,95,Wet 'n' Wild Toronto,"7855 Finch Ave, Brampton, Ontario",43.733728,-79.634292,"7855 Finch Ave West, Brampton, Ontario L6T 0B2 Canada",T51,2.8,"['Water Parks', 'Water Parks']",https://www.tripadvisor.ca/Attraction_Review-g154982-d186832-Reviews-Wet_n_Wild_Toronto-Brampton_Ontario.html
52,96,The Big'r Apple Farm,"8674 Heritage Rd, Brampton, Ontario",43.6163447,-79.7850606,"8674 Heritage Rd, Brampton, Ontario L6Y 0E1 Canada",T52,3.9,"['Farms', 'Farms']",https://www.tripadvisor.ca/Attraction_Review-g154982-d4940997-Reviews-The_Big_r_Apple_Farm-Brampton_Ontario.html
53,98,Pearson Convention Center,"2638 Steeles Ave, Brampton, Ontario",43.661147,-79.7386763,"2638 Steeles Ave E, Brampton, Ontario L6S 6J9 Canada",T53,4.3,"['Conference & Convention Centres', 'Conference & Convention Centres']",https://www.tripadvisor.ca/Attraction_Review-g154982-d4060358-Reviews-Pearson_Convention_Center-Brampton_Ontario.html
54,100,CAA Centre,"7575 Kennedy Road, Brampton, Ontario",43.667493,-79.70840033618447,"7575 Kennedy Road South, Brampton, Ontario L6W 4T2 Canada",T54,3.7,"['Arenas & Stadiums', 'Arenas & Stadiums']",https://www.tripadvisor.ca/Attraction_Review-g154982-d3669789-Reviews-CAA_Centre-Brampton_Ontario.html
55,101,747 Flea Market,"75 Parkhurst Square, Brampton, Ontario",43.72739589106965,-79.66619540327352,"75 Parkhurst Square, Brampton, Ontario L6T 5J2 Canada",T55,3.1,"['Flea & Street Markets', 'Flea & Street Markets']",https://www.tripadvisor.ca/Attraction_Review-g154982-d5085074-Reviews-747_Flea_Market-Brampton_Ontario.html
56,102,Carl Laidlaw Orchards,"9496 Heritage Rd, Brampton, Ontario",43.6462491,-79.8278536,"9496 Heritage Rd, Brampton, Ontario L6X 0A1 Canada",T56,4.6,"['Farms', 'Farms']",https://www.tripadvisor.ca/Attraction_Review-g154982-d15154157-Reviews-Carl_Laidlaw_Orchards-Brampton_Ontario.html
57,103,Meadowvale Cemetery,"7732 Mavis Rd, Brampton, Ontario",43.6440908,-79.750592,"7732 Mavis Rd, Brampton, Ontario L6Y 5L5 Canada",T57,4.4,"['Cemeteries', 'Cemeteries']",https://www.tripadvisor.ca/Attraction_Review-g154982-d3948125-Reviews-Meadowvale_Cemetery-Brampton_Ontario.html
58,104,Garden Square,"12 Main St, Brampton, Ontario",43.6664656,-79.7343925,"12 Main St N, Brampton, Ontario L6V 1N6 Canada",T58,4.8,"['Parks', 'Parks']",https://www.tripadvisor.ca/Attraction_Review-g154982-d15029586-Reviews-Garden_Square-Brampton_Ontario.html
59,105,Century Gardens Recreation Centre,"340 Vodden St, Brampton, Ontario",43.7084355,-79.75390441666667,"340 Vodden St E East Brampton, Brampton, Ontario L6V 2N2 Canada",T59,4.3,"['Sports Complexes', 'Playgrounds', 'Sports Complexes', 'Playgrounds']",https://www.tripadvisor.ca/Attraction_Review-g154982-d8447475-Reviews-Century_Gardens_Recreation_Centre-Brampton_Ontario.html
60,108,Trinity Common Mall,"210 Great Lakes, Brampton, Ontario",43.73482255882353,-79.76750393529412,"210 Great Lakes Dr, Brampton, Ontario L6R 2K7 Canada",T60,3.7,"['Shopping Malls', 'Shopping Malls']",https://www.tripadvisor.ca/Attraction_Review-g154982-d12154641-Reviews-Trinity_Common_Mall-Brampton_Ontario.html
61,109,Orchalaw Farms,"9726 Heritage Rd, Brampton, Ontario",43.652492440581156,-79.83384762504834,"9726 Heritage Rd, Brampton, Ontario L6X 0A2 Canada",T61,3.1,"['Farms', 'Farms']",https://www.tripadvisor.ca/Attraction_Review-g154982-d4942153-Reviews-Orchalaw_Farms-Brampton_Ontario.html
62,110,Brampton City Hall,"2 Wellington St, Brampton, Ontario",43.6842951,-79.7575472,"2 Wellington St W, Brampton, Ontario L6Y 4R2 Canada",T62,3.7,"['Points of Interest & Landmarks', 'Points of Interest & Landmarks']",https://www.tripadvisor.ca/Attraction_Review-g154982-d4060353-Reviews-Brampton_City_Hall-Brampton_Ontario.html
63,111,Historic Bovaird House,"563 Bovaird Drive, Brampton, Ontario",43.7057066,-79.7868372,"563 Bovaird Drive East, Brampton, Ontario L6V 3W7 Canada",T63,4.2,"['Speciality Museums', 'Speciality Museums']",https://www.tripadvisor.ca/Attraction_Review-g154982-d4066620-Reviews-Historic_Bovaird_House-Brampton_Ontario.html
64,113,Jellybeenz Indoor Play & Party Center,"13-10 Bramhurst Ave, Brampton, Ontario",43.7199795,-79.6869737,"13-10 Bramhurst Ave, Brampton, Ontario L6T 5H1 Canada",T64,3.8,"['Playgrounds', 'Playgrounds']",https://www.tripadvisor.ca/Attraction_Review-g154982-d6665585-Reviews-Jellybeenz_Indoor_Play_Party_Center-Brampton_Ontario.html
65,114,The Country Apple Store,"8605 Heritage Rd, Brampton, Ontario",43.6294334,-79.8017981,"8605 Heritage Rd, Brampton, Ontario L6Y 0E4 Canada",T65,4.5,"['Farms', 'Farms']",https://www.tripadvisor.ca/Attraction_Review-g154982-d12498767-Reviews-The_Country_Apple_Store-Brampton_Ontario.html
66,115,ISKCON Brampton,"173 Advance Boulevard, Brampton, Ontario",43.6936168,-79.6919671,"173 Advance Boulevard Unit #41, Brampton, Ontario L6T 4J4 Canada",T66,4.2,"['Sacred & Religious Sites', 'Sacred & Religious Sites']",https://www.tripadvisor.ca/Attraction_Review-g154982-d3334792-Reviews-ISKCON_Brampton-Brampton_Ontario.html
67,116,Indian Line Conservation Area,"7625 Finch Ave, Brampton, Ontario",43.733774,-79.6342808,"7625 Finch Ave, Brampton, Ontario L6T 0B2 Canada",T67,3.5,"['Nature & Wildlife Areas', 'Nature & Wildlife Areas']",https://www.tripadvisor.ca/Attraction_Review-g154982-d7269523-Reviews-Indian_Line_Conservation_Area-Brampton_Ontario.html
68,117,Lester B. Pearson Theatre,"110-150 Central Park, Brampton, Ontario",43.8391814,-79.7062692,"110-150 Central Park Dr, Brampton, Ontario L6T 1B4 Canada",T68,4.7,"['Theatres', 'Theatres']",https://www.tripadvisor.ca/Attraction_Review-g154982-d4928304-Reviews-Lester_B_Pearson_Theatre-Brampton_Ontario.html
69,119,IN5 Experium Golden Temple,"70 Peel Centre, Brampton, Ontario",43.6895367,-79.7514583,"70 Peel Centre Dr, Brampton, Ontario L6T 4G8 Canada",T69,3.5,"['Speciality Museums', 'Speciality Museums']",https://www.tripadvisor.ca/Attraction_Review-g154982-d17549275-Reviews-IN5_Experium_Golden_Temple-Brampton_Ontario.html
70,120,New Apostolic Church,"45 Eastbourne Dr, Brampton, Ontario",43.7259066,-79.69946479042093,"45 Eastbourne Dr, Brampton, Ontario L6T 4E9 Canada",T70,5.0,"['Sacred & Religious Sites', 'Sacred & Religious Sites']",https://www.tripadvisor.ca/Attraction_Review-g154982-d11771508-Reviews-New_Apostolic_Church-Brampton_Ontario.html
71,121,Jim Archdekin Recreation Centre,"292 Conestoga Dr, Brampton, Ontario",43.7159067,-79.7863073,"292 Conestoga Dr, Brampton, Ontario L6Z 3M1 Canada",T71,3.0,"['Sports Complexes', 'Sports Complexes']",https://www.tripadvisor.ca/Attraction_Review-g154982-d17740782-Reviews-Jim_Archdekin_Recreation_Centre-Brampton_Ontario.html
72,123,Wayne Gretzky Sports Centre,"254 North Park, Brantford, Ontario",43.14082645,-80.26315993288691,"254 North Park St, Brantford, Ontario N3R 4L1 Canada",T72,4.6,"['Sports Complexes', 'Sports Complexes']",https://www.tripadvisor.ca/Attraction_Review-g154983-d4567380-Reviews-Wayne_Gretzky_Sports_Centre-Brantford_Ontario.html
73,124,Bell Homestead,"94 Tutela Heights, Brantford, Ontario",43.1078099,-80.2707667,"94 Tutela Heights Rd, Brantford, Ontario N3T 1A1 Canada",T73,4.4,"['Historic Sites', 'Historic Sites']",https://www.tripadvisor.ca/Attraction_Review-g154983-d296634-Reviews-Bell_Homestead-Brantford_Ontario.html
74,126,Glenhyrst Art Gallery and Gardens,"20 Ava Rd, Brantford, Ontario",43.1567611,-80.2866689,"20 Ava Rd, Brantford, Ontario N3T 5G9 Canada",T74,4.6,"['Gardens', 'Gardens']",https://www.tripadvisor.ca/Attraction_Review-g154983-d2706705-Reviews-Glenhyrst_Art_Gallery_and_Gardens-Brantford_Ontario.html
75,127,Brantwood Farms,"251 Powerline Rd, Brantford, Ontario",43.1926387,-80.24200798304904,"251 Powerline Rd, Brantford, Ontario N3T 5L8 Canada",T75,4.5,"['Farms', 'Farms']",https://www.tripadvisor.ca/Attraction_Review-g154983-d4266654-Reviews-Brantwood_Farms-Brantford_Ontario.html
76,129,Sanderson Centre for the Performing Arts,"88 Dalhousie St, Brantford, Ontario",43.13952363333333,-80.26447206666667,"88 Dalhousie St, Brantford, Ontario N3T 2J2 Canada",T76,4.7,"['Theatres', 'Theatres']",https://www.tripadvisor.ca/Attraction_Review-g154983-d3553114-Reviews-Sanderson_Centre_for_the_Performing_Arts-Brantford_Ontario.html
77,130,Canadian Military Heritage Museum,"347 Greenwich St, Brantford, Ontario",43.1315581,-80.2511113,"347 Greenwich St N3S 7X4, Brantford, Ontario N3S 7X4 Canada",T77,4.9,"['Speciality Museums', 'Speciality Museums']",https://www.tripadvisor.ca/Attraction_Review-g154983-d4269102-Reviews-Canadian_Military_Heritage_Museum-Brantford_Ontario.html
78,131,Al's Shoe Factory,"135 King George, Brantford, Ontario",43.17107371666666,-80.27724561666668,"135 King George Rd, Brantford, Ontario N3R 5K7 Canada",T78,4.2,"['Factory Outlets', 'Factory Outlets']",https://www.tripadvisor.ca/Attraction_Review-g154983-d2536539-Reviews-Al_s_Shoe_Factory-Brantford_Ontario.html
79,132,Woodland Cultural Centre,"184 Mohawk St, Brantford, Ontario",43.127639450000004,-80.240407160264,"184 Mohawk St N3s 2x3, Brantford, Ontario N3S 2X2 Canada",T79,4.3,"['Art Galleries', 'Points of Interest & Landmarks', 'Art Galleries', 'Points of Interest & Landmarks']",https://www.tripadvisor.ca/Attraction_Review-g154983-d4242713-Reviews-Woodland_Cultural_Centre-Brantford_Ontario.html
80,133,Mohawk Chapel,"301 Mohawk Street, Brantford, Ontario",43.1244365,-80.23482714793113,"301 Mohawk Street, Brantford, Ontario N3S 7V1 Canada",T80,4.4,"['Points of Interest & Landmarks', 'Points of Interest & Landmarks']",https://www.tripadvisor.ca/Attraction_Review-g154983-d4082943-Reviews-Mohawk_Chapel-Brantford_Ontario.html
81,134,Elements Casino Brantford,"40 Icomm Dr, Brantford, Ontario",43.13646895,-80.26570853385556,"40 Icomm Dr Are You Going Reopen Casino On July 18, Brantford, Ontario N3S 7S9 Canada",T81,3.0,"['Casinos', 'Casinos']",https://www.tripadvisor.ca/Attraction_Review-g154983-d9749554-Reviews-Elements_Casino_Brantford-Brantford_Ontario.html
82,135,Bell City Brewery,"51 Woodyatt Dr, Brantford, Ontario",43.1703967,-80.2366512,"51 Woodyatt Dr Unit #9, Brantford, Ontario N3R 7K3 Canada",T82,4.6,"['Breweries', 'Breweries']",https://www.tripadvisor.ca/Attraction_Review-g154983-d9554454-Reviews-Bell_City_Brewery-Brantford_Ontario.html
83,136,Crossroads Flea Market,"1146 Colborne St, Brantford, Ontario",43.1381423,-80.2686929,"1146 Colborne St E, Brantford, Ontario N3S 0H4 Canada",T83,3.8,"['Flea & Street Markets', 'Flea & Street Markets']",https://www.tripadvisor.ca/Attraction_Review-g154983-d4266820-Reviews-Crossroads_Flea_Market-Brantford_Ontario.html
84,138,Glenhyrst Art Gallery of Brant,"20 Ava Rd, Brantford, Ontario",43.1567611,-80.2866689,"20 Ava Rd, Brantford, Ontario N3T 5G9 Canada",T84,4.4,"['Art Galleries', 'Art Galleries']",https://www.tripadvisor.ca/Attraction_Review-g154983-d2706700-Reviews-Glenhyrst_Art_Gallery_of_Brant-Brantford_Ontario.html
85,139,Lynden Park Mall,"Lynden Park Mall, Brantford, Ontario",43.17126355,-80.24006832307936,"Lynden Park Mall 84 Lynden Rd N3R 6B8, Brantford, Ontario N3R 6B8 Canada",T85,3.2,"['Shopping Malls', 'Shopping Malls']",https://www.tripadvisor.ca/Attraction_Review-g154983-d4250350-Reviews-Lynden_Park_Mall-Brantford_Ontario.html
86,140,Brant County Museum & Archives,"57 Charlotte St, Brantford, Ontario",43.1418448,-80.26080928,"57 Charlotte St N3T 2W6, Brantford, Ontario N3T 2W6 Canada",T86,4.7,"['Speciality Museums', 'Speciality Museums']",https://www.tripadvisor.ca/Attraction_Review-g154983-d4269099-Reviews-Brant_County_Museum_Archives-Brantford_Ontario.html
87,142,Myrtleville House Museum,"34 Myrtleville Dr, Brantford, Ontario",43.17372848235294,-80.29712563529411,"34 Myrtleville Dr N3r 7n5, Brantford, Ontario N3V 1C2 Canada",T87,4.3,"['Speciality Museums', 'Speciality Museums']",https://www.tripadvisor.ca/Attraction_Review-g154983-d4242716-Reviews-Myrtleville_House_Museum-Brantford_Ontario.html
88,143,Victoria Park,"65 Market Street, Brantford, Ontario",43.1439559,-80.264209,"65 Market Street, Brantford, Ontario N3T 2Z7 Canada",T88,4.2,"['Parks', 'Parks']",https://www.tripadvisor.ca/Attraction_Review-g154983-d13007197-Reviews-Victoria_Park-Brantford_Ontario.html
89,144,Mash Paddle Brewing Co,"111 Sherwood Dr, Brantford, Ontario",43.1333185,-80.2786962,"111 Sherwood Dr Unit 3A, Brantford, Ontario N3T 6J9 Canada",T89,4.0,"['Breweries', 'Breweries']",https://www.tripadvisor.ca/Attraction_Review-g154983-d13109074-Reviews-Mash_Paddle_Brewing_Co-Brantford_Ontario.html
90,145,Brant County War Memorial,"6 Dalhousie Street, Brantford, Ontario",43.1392368,-80.2687218,"6 Dalhousie Street, Brantford, Ontario N3T 2J1 Canada",T90,4.7,"['Parks', 'Parks']",https://www.tripadvisor.ca/Attraction_Review-g154983-d13297870-Reviews-Brant_County_War_Memorial-Brantford_Ontario.html
91,146,Steel Wheel Brewery,"105 Powerline Rd, Brantford, Ontario",43.195941324590166,-80.2197057704918,"105 Powerline Rd, Brantford, Ontario N3T 5L8 Canada",T91,4.8,"['Breweries', 'Breweries']",https://www.tripadvisor.ca/Attraction_Review-g154983-d17560808-Reviews-Steel_Wheel_Brewery-Brantford_Ontario.html
92,147,Personal Computer Museum,"13 Alma St, Brantford, Ontario",43.1577614,-80.2652081,"13 Alma St, Brantford, Ontario N3R 2G1 Canada",T92,4.3,"['Speciality Museums', 'Speciality Museums']",https://www.tripadvisor.ca/Attraction_Review-g154983-d4267030-Reviews-Personal_Computer_Museum-Brantford_Ontario.html
93,148,The Carnival Museum,"114 Alice St, Brantford, Ontario",43.15118186666667,-80.25257713333333,"114 Alice St, Brantford, Ontario N3S 5B7 Canada",T93,4.0,"['Speciality Museums', 'Speciality Museums']",https://www.tripadvisor.ca/Attraction_Review-g154983-d8423323-Reviews-The_Carnival_Museum-Brantford_Ontario.html
94,149,Grace Anglican Church,"4 Pearl St, Brantford, Ontario",43.141885349999995,-80.2682981131315,"4 Pearl St, Brantford, Ontario N3T 3N4 Canada",T94,5.0,"['Churches & Cathedrals', 'Churches & Cathedrals']",https://www.tripadvisor.ca/Attraction_Review-g154983-d4677681-Reviews-Grace_Anglican_Church-Brantford_Ontario.html
95,151,Brantford Arts Block,"111 Sherwood Dr, Brantford, Ontario",43.1333185,-80.2786962,"111 Sherwood Dr N3T 6J9, Brantford, Ontario N3T 6J9 Canada",T95,4.8,"['Points of Interest & Landmarks', 'Points of Interest & Landmarks']",https://www.tripadvisor.ca/Attraction_Review-g154983-d4412494-Reviews-Brantford_Arts_Block-Brantford_Ontario.html
96,152,Bell Memorial Gardens,"41 West Street, Brantford, Ontario",43.1457104,-80.2652012,"41 West Street, Brantford, Ontario N3T 3N4 Canada",T96,2.7,"['Gardens', 'Gardens']",https://www.tripadvisor.ca/Attraction_Review-g154983-d4282877-Reviews-Bell_Memorial_Gardens-Brantford_Ontario.html
97,155,Fulford Place,"287 King St, Brockville, Ontario",44.59750485,-75.67080998877552,"287 King St E, Brockville, Ontario K6V 1E1 Canada",T97,4.5,"['Historic Sites', 'Historic Sites']",https://www.tripadvisor.ca/Attraction_Review-g181758-d656675-Reviews-Fulford_Place-Brockville_Ontario.html
98,156,Blockhouse Island,"30 Blockhouse Island, Brockville, Ontario",44.5875081,-75.6810446,"30 Blockhouse Island Parkway, Brockville, Ontario K6V 4R7 Canada",T98,4.6,"['Islands', 'Islands']",https://www.tripadvisor.ca/Attraction_Review-g181758-d12811962-Reviews-Blockhouse_Island-Brockville_Ontario.html
99,157,Aquatarium at Tall Ships Landing,"6 Broad St, Brockville, Ontario",44.5878484,-75.6826512,"6 Broad St, Brockville, Ontario K6V 0C4 Canada",T99,3.9,"['Speciality Museums', 'Science Museums', 'Speciality Museums', 'Science Museums']",https://www.tripadvisor.ca/Attraction_Review-g181758-d10085041-Reviews-Aquatarium_at_Tall_Ships_Landing-Brockville_Ontario.html
100,158,Brockville Arts Centre,"235 King St, Brockville, Ontario",44.58665445,-75.6891501388458,"235 King St W, Brockville, Ontario K6V 3S2 Canada",T100,4.7,[],https://www.tripadvisor.ca/Attraction_Review-g181758-d2301513-Reviews-Brockville_Arts_Centre-Brockville_Ontario.html
101,159,St. Lawrence Park,"525 King St., Brockville, Ontario",44.5905831,-75.6826445,"525 King St. West, Brockville, Ontario K6V 3T3 Canada",T101,4.4,"['Parks', 'Playgrounds', 'Parks', 'Playgrounds']",https://www.tripadvisor.ca/Attraction_Review-g181758-d10210225-Reviews-St_Lawrence_Park-Brockville_Ontario.html
102,162,Golden Hawk CF-86 Sabre Jet,"45 Blockhouse Island, Brockville, Ontario",44.5875081,-75.6810446,"45 Blockhouse Island Parkway, Brockville, Ontario Canada",T102,4.0,"['Monuments & Statues', 'Monuments & Statues']",https://www.tripadvisor.ca/Attraction_Review-g181758-d1492209-Reviews-Golden_Hawk_CF_86_Sabre_Jet-Brockville_Ontario.html
103,164,Brockville Museum,"5 Henry St, Brockville, Ontario",44.58624815,-75.68655938718675,"5 Henry St Next to Hardy Park, Brockville, Ontario K6V 6M4 Canada",T103,4.5,"['Speciality Museums', 'History Museums', 'Speciality Museums', 'History Museums']",https://www.tripadvisor.ca/Attraction_Review-g181758-d4089856-Reviews-Brockville_Museum-Brockville_Ontario.html
104,170,John H. Fulford Fountain,"Court House Ave, Brockville, Ontario",44.5899813,-75.6849257,"Court House Ave, Brockville, Ontario K6V 4T3 Canada",T104,5.0,"['Historic Sites', 'Fountains', 'Historic Sites', 'Fountains']",https://www.tripadvisor.ca/Attraction_Review-g181758-d12868933-Reviews-John_H_Fulford_Fountain-Brockville_Ontario.html
105,171,1000 Islands Mall,"2399 Parkedale Ave, Brockville, Ontario",44.6025766,-75.6991115,"2399 Parkedale Ave, Brockville, Ontario K6V 3G9 Canada",T105,2.5,"['Shopping Malls', 'Shopping Malls']",https://www.tripadvisor.ca/Attraction_Review-g181758-d2665977-Reviews-1000_Islands_Mall-Brockville_Ontario.html
106,172,Brockville Armouries,"144 King St, Brockville, Ontario",44.5945234,-75.67794565526697,"144 King St E, Brockville, Ontario K6V 1C2 Canada",T106,4.2,"['Historic Sites', 'Historic Sites']",https://www.tripadvisor.ca/Attraction_Review-g181758-d5570088-Reviews-Brockville_Armouries-Brockville_Ontario.html
107,175,Brockville Memorial Civic Centre,"60 Magedoma Blvd, Brockville, Ontario",44.60775405,-75.69888564452765,"60 Magedoma Blvd, Brockville, Ontario K6V 7N7 Canada",T107,4.3,"['Civic Centres', 'Civic Centres']",https://www.tripadvisor.ca/Attraction_Review-g181758-d5565562-Reviews-Brockville_Memorial_Civic_Centre-Brockville_Ontario.html
108,176,First Presbyterian Church,"10 Church St, Brockville, Ontario",44.590531049999996,-75.68657551545826,"10 Church St, Brockville, Ontario K6V 3X4 Canada",T108,4.5,"['Points of Interest & Landmarks', 'Churches & Cathedrals', 'Points of Interest & Landmarks', 'Churches & Cathedrals']",https://www.tripadvisor.ca/Attraction_Review-g181758-d5565558-Reviews-First_Presbyterian_Church-Brockville_Ontario.html
109,177,St. Francis Xavier Catholic Church,"66 Church St, Brockville, Ontario",44.589270049999996,-75.68898382530446,"66 Church St, Brockville, Ontario K6V 3X6 Canada",T109,4.5,"['Churches & Cathedrals', 'Churches & Cathedrals']",https://www.tripadvisor.ca/Attraction_Review-g181758-d17847194-Reviews-St_Francis_Xavier_Catholic_Church-Brockville_Ontario.html
110,180,First Baptist Church,"5 Pine Street, Brockville, Ontario",44.59071,-75.6843776,"5 Pine Street, Brockville, Ontario K6V 5T7 Canada",T110,4.0,"['Churches & Cathedrals', 'Churches & Cathedrals']",https://www.tripadvisor.ca/Attraction_Review-g181758-d12846137-Reviews-First_Baptist_Church-Brockville_Ontario.html
111,181,General Isaac Brock Monument,"Court House avenue, Brockville, Ontario",44.5899813,-75.6849257,"Court House avenue, Brockville, Ontario Canada",T111,3.0,"['Monuments & Statues', 'Monuments & Statues']",https://www.tripadvisor.ca/Attraction_Review-g181758-d14996771-Reviews-General_Isaac_Brock_Monument-Brockville_Ontario.html
112,183,Burlington Waterfront Trail,"Lakeshore Road east, Burlington, Ontario",43.3719208,-79.7248756,"Lakeshore Road east and North Shore Blvd. West Lakeshore Road, Burlington, Ontario Canada",T112,4.6,"['Biking Trails', 'Biking Trails']",https://www.tripadvisor.ca/Attraction_Review-g154984-d2478111-Reviews-Burlington_Waterfront_Trail-Burlington_Ontario.html
113,184,Royal Botanical Gardens,"680 Plains Rd, Burlington, Ontario",43.3347104,-79.8340164,"680 Plains Rd W, Burlington, Ontario L7T 4H4 Canada",T113,4.3,"['Gardens', 'Gardens']",https://www.tripadvisor.ca/Attraction_Review-g154984-d185110-Reviews-Royal_Botanical_Gardens-Burlington_Ontario.html
114,185,Spencer Smith Park,"1400 Lakeshore Road, Burlington, Ontario",43.32437051533923,-79.79588628938053,"1400 Lakeshore Road, Burlington, Ontario L7S 1A1 Canada",T114,4.6,"['Bodies of Water', 'Parks', 'Bodies of Water', 'Parks']",https://www.tripadvisor.ca/Attraction_Review-g154984-d8817411-Reviews-Spencer_Smith_Park-Burlington_Ontario.html
115,186,Mount Nemo Conservation Area,"5317 Guelph Line, Burlington, Ontario",43.354195,-79.8069741,"5317 Guelph Line, Burlington, Ontario L7P 0A5 Canada",T115,4.6,"['Nature & Wildlife Areas', 'Hiking Trails', 'Nature & Wildlife Areas', 'Hiking Trails']",https://www.tripadvisor.ca/Attraction_Review-g154984-d4263484-Reviews-Mount_Nemo_Conservation_Area-Burlington_Ontario.html
116,187,LaSalle Park,"50 North Shore, Burlington, Ontario",43.30402200912155,-79.84537534957362,"50 North Shore Boulevard, Burlington, Ontario L7T 4A4 Canada",T116,4.6,"['Parks', 'Parks']",https://www.tripadvisor.ca/Attraction_Review-g154984-d5461950-Reviews-LaSalle_Park-Burlington_Ontario.html
117,188,Paletta Lakefront Park and Mansion,"4250 Lakeshore Rd, Burlington, Ontario",43.35326444285714,-79.75479541428571,"4250 Lakeshore Rd, Burlington, Ontario L7L 1A6 Canada",T117,4.5,"['Parks', 'Parks']",https://www.tripadvisor.ca/Attraction_Review-g154984-d4266798-Reviews-Paletta_Lakefront_Park_and_Mansion-Burlington_Ontario.html
118,189,Lowville Park,"6207 Guelph Line, Burlington, Ontario",43.43188777815608,-79.90699492286825,"6207 Guelph Line, Burlington, Ontario L7P 0A6 Canada",T118,4.4,"['Parks', 'Parks']",https://www.tripadvisor.ca/Attraction_Review-g154984-d5473168-Reviews-Lowville_Park-Burlington_Ontario.html
119,191,Art Gallery of Burlington,"1333 Lakeshore Rd, Burlington, Ontario",43.3208603,-79.8004307,"1333 Lakeshore Rd, Burlington, Ontario L7S 1A9 Canada",T119,4.4,"['Art Galleries', 'Art Galleries']",https://www.tripadvisor.ca/Attraction_Review-g154984-d9569951-Reviews-Art_Gallery_of_Burlington-Burlington_Ontario.html
120,192,GO Transit,"2101 Fairview Street, Burlington, Ontario",43.340647,-79.8092977,"2101 Fairview Street, Burlington, Ontario L7R 0B4 Canada",T120,3.9,"['Mass Transportation Systems', 'Mass Transportation Systems']",https://www.tripadvisor.ca/Attraction_Review-g154984-d10630516-Reviews-GO_Transit-Burlington_Ontario.html
121,193,Beachway Park,"1100 Lakeshore Road, Burlington, Ontario",43.310122146559884,-79.80066061134998,"1100 Lakeshore Road, Burlington, Ontario L7S 1A7 Canada",T121,3.9,"['Parks', 'Parks']",https://www.tripadvisor.ca/Attraction_Review-g154984-d10452420-Reviews-Beachway_Park-Burlington_Ontario.html
122,194,Mapleview Shopping Centre,"900 Maple Ave., Burlington, Ontario",43.325903100000005,-79.82042175251246,"900 Maple Ave., Burlington, Ontario L7S 2J8 Canada",T122,4.3,"['Shopping Malls', 'Shopping Malls']",https://www.tripadvisor.ca/Attraction_Review-g154984-d7145833-Reviews-Mapleview_Shopping_Centre-Burlington_Ontario.html
123,195,Ireland House Museum,"2168 Guelph Line, Burlington, Ontario",43.3675874,-79.8263013,"2168 Guelph Line, Burlington, Ontario L7P 5A8 Canada",T123,4.6,"['Speciality Museums', 'Speciality Museums']",https://www.tripadvisor.ca/Attraction_Review-g154984-d4066222-Reviews-Ireland_House_Museum-Burlington_Ontario.html
124,196,Brant Street Pier,"1400 Lakeshore Rd, Burlington, Ontario",43.32437051533923,-79.79588628938053,"1400 Lakeshore Rd, Burlington, Ontario L7S 1Y2 Canada",T124,4.0,"['Piers & Boardwalks', 'Piers & Boardwalks']",https://www.tripadvisor.ca/Attraction_Review-g154984-d13200510-Reviews-Brant_Street_Pier-Burlington_Ontario.html
125,197,Kerncliff Park,"2198 Kerns Rd, Burlington, Ontario",43.34795790189268,-79.85819889723301,"2198 Kerns Rd, Burlington, Ontario L7P 1P8 Canada",T125,4.5,"['Parks', 'Parks']",https://www.tripadvisor.ca/Attraction_Review-g154984-d14085653-Reviews-Kerncliff_Park-Burlington_Ontario.html
126,198,Hendrie Valley,"444 Patricia Dr, Burlington, Ontario",43.2955163,-79.8670903,"444 Patricia Dr, Burlington, Ontario L7T 1K2 Canada",T126,4.7,"['Nature & Wildlife Areas', 'Nature & Wildlife Areas']",https://www.tripadvisor.ca/Attraction_Review-g154984-d9584802-Reviews-Hendrie_Valley-Burlington_Ontario.html
127,199,Burlington Mall,"Burlington Mall 777, Burlington, Ontario",43.3408481,-79.8097034,"Burlington Mall 777 Guelph Line L7R 3N2, Burlington, Ontario L7R 3N2 Canada",T127,3.7,"['Shopping Malls', 'Shopping Malls']",https://www.tripadvisor.ca/Attraction_Review-g154984-d4261136-Reviews-Burlington_Mall-Burlington_Ontario.html
128,200,Burlington Convention Centre,"1120 Burloak Drive, Burlington, Ontario",43.398055584615385,-79.7605307,"1120 Burloak Drive, Burlington, Ontario L7L 6P8 Canada",T128,4.5,"['Conference & Convention Centres', 'Conference & Convention Centres']",https://www.tripadvisor.ca/Attraction_Review-g154984-d12459188-Reviews-Burlington_Convention_Centre-Burlington_Ontario.html
129,202,Burlington Public Library,"2331 New St, Burlington, Ontario",43.3358039,-79.79006614960123,"2331 New St, Burlington, Ontario L7R 1J4 Canada",T129,4.8,"['Libraries', 'Libraries']",https://www.tripadvisor.ca/Attraction_Review-g154984-d11711200-Reviews-Burlington_Public_Library-Burlington_Ontario.html
130,203,Joseph Brant Museum,"1240 North Shore, Burlington, Ontario",43.3143821,-79.8097105,"1240 North Shore Blvd E, Burlington, Ontario L7S 1C5 Canada",T130,3.9,"['Speciality Museums', 'Speciality Museums']",https://www.tripadvisor.ca/Attraction_Review-g154984-d4066223-Reviews-Joseph_Brant_Museum-Burlington_Ontario.html
131,204,Burlington City Hall,"426 Brant St, Burlington, Ontario",43.3256621,-79.79888918811297,"426 Brant St, Burlington, Ontario L7R 2G2 Canada",T131,4.0,"['Points of Interest & Landmarks', 'Points of Interest & Landmarks']",https://www.tripadvisor.ca/Attraction_Review-g154984-d4558040-Reviews-Burlington_City_Hall-Burlington_Ontario.html
132,205,Nickel Brook Brewing Co,"864 Drury Lane, Burlington, Ontario",43.3431723,-79.8049174,"864 Drury Lane, Burlington, Ontario L7R 2Y4 Canada",T132,4.8,"['Breweries', 'Breweries']",https://www.tripadvisor.ca/Attraction_Review-g154984-d14919518-Reviews-Nickel_Brook_Brewing_Co-Burlington_Ontario.html
133,206,City View Park,"Dundas Street East, Burlington, Ontario",43.4210344,-79.7920457,"Dundas Street East, Burlington, Ontario L7P 1P8 Canada",T133,4.0,"['Parks', 'Parks']",https://www.tripadvisor.ca/Attraction_Review-g154984-d4263481-Reviews-City_View_Park-Burlington_Ontario.html
134,207,Amazing Adventures Playland,"4325 Harvester Rd, Burlington, Ontario",43.371999800000005,-79.7738757125,"4325 Harvester Rd, Burlington, Ontario L7L 5M4 Canada",T134,3.6,"['Playgrounds', 'Playgrounds']",https://www.tripadvisor.ca/Attraction_Review-g154984-d4283191-Reviews-Amazing_Adventures_Playland-Burlington_Ontario.html
135,209,Maple Park,"750 Maple Avenue, Burlington, Ontario",43.3240946,-79.8152201,"750 Maple Avenue, Burlington, Ontario L7S 2J8 Canada",T135,5.0,"['Parks', 'Playgrounds', 'Parks', 'Playgrounds']",https://www.tripadvisor.ca/Attraction_Review-g154984-d19616967-Reviews-Maple_Park-Burlington_Ontario.html
136,210,Walt Rickli Interactive Sculpture Garden,"6214 Lowville Park, Burlington, Ontario",43.4333593,-79.904882497774,"6214 Lowville Park Road, Burlington, Ontario L7P 0A8 Canada",T136,4.0,"['Art Galleries', 'Art Galleries']",https://www.tripadvisor.ca/Attraction_Review-g154984-d10712982-Reviews-Walt_Rickli_Interactive_Sculpture_Garden-Burlington_Ontario.html
137,212,Duncaster Park,"2330 Duncaster Dr, Burlington, Ontario",43.3645347,-79.84597373761073,"2330 Duncaster Dr, Burlington, Ontario L7P 4S6 Canada",T137,3.5,"['Parks', 'Hiking Trails', 'Forests', 'Parks', 'Hiking Trails', 'Forests']",https://www.tripadvisor.ca/Attraction_Review-g154984-d8826048-Reviews-Duncaster_Park-Burlington_Ontario.html
138,213,Sherwood Forest Park,"5270 Fairview St, Burlington, Ontario",43.381167595779885,-79.75619825258308,"5270 Fairview St, Burlington, Ontario L7L 6B7 Canada",T138,2.0,"['Parks', 'Parks']",https://www.tripadvisor.ca/Attraction_Review-g154984-d19318787-Reviews-Sherwood_Forest_Park-Burlington_Ontario.html
139,342,Cambridge Butterfly Conservatory,"2500 Kossuth Rd, Cambridge, Ontario",43.4521635,-80.3673069,"2500 Kossuth Rd, Cambridge, Ontario N3H 4R6 Canada",T139,4.4,"['Speciality Museums', 'Nature & Wildlife Areas', 'Speciality Museums', 'Nature & Wildlife Areas']",https://www.tripadvisor.ca/Attraction_Review-g154985-d2423068-Reviews-Cambridge_Butterfly_Conservatory-Cambridge_Region_of_Waterloo_Ontario.html
140,343,Hamilton Family Theatre Cambridge,"46 Grand Ave, Cambridge, Ontario",43.0138142,-79.2024786,"46 Grand Ave S, Cambridge, Ontario N1S 2L8 Canada",T140,4.8,"['Theatres', 'Theatres']",https://www.tripadvisor.ca/Attraction_Review-g154985-d4273138-Reviews-Hamilton_Family_Theatre_Cambridge-Cambridge_Region_of_Waterloo_Ontario.html
141,345,Riverside Park,"49 King Street, Cambridge, Ontario",43.40021,-80.366399,"49 King Street West, Cambridge, Ontario Canada",T141,4.3,"['Parks', 'Parks']",https://www.tripadvisor.ca/Attraction_Review-g154985-d4103208-Reviews-Riverside_Park-Cambridge_Region_of_Waterloo_Ontario.html
142,347,Fashion History Museum,"74 Queen St, Cambridge, Ontario",43.4204108,-80.3279678,"74 Queen St E Hespeler, Cambridge, Ontario N3C 2B1 Canada",T142,4.6,"['Speciality Museums', 'Speciality Museums']",https://www.tripadvisor.ca/Attraction_Review-g154985-d5287874-Reviews-Fashion_History_Museum-Cambridge_Region_of_Waterloo_Ontario.html
143,348,Mill Race Park,"36 Water St, Cambridge, Ontario",43.3532892,-80.3155589,"36 Water St N, Cambridge, Ontario N1R 3B1 Canada",T143,4.5,"['Parks', 'Parks']",https://www.tripadvisor.ca/Attraction_Review-g154985-d8046902-Reviews-Mill_Race_Park-Cambridge_Region_of_Waterloo_Ontario.html
144,349,Four Fathers Brewing Co,"125 Guelph Ave, Cambridge, Ontario",43.4348237,-80.3114781,"125 Guelph Ave, Cambridge, Ontario N3C 1A5 Canada",T144,4.0,"['Breweries', 'Breweries']",https://www.tripadvisor.ca/Attraction_Review-g154985-d15078653-Reviews-Four_Fathers_Brewing_Co-Cambridge_Region_of_Waterloo_Ontario.html
145,350,Shade's Mills,"450 Avenue Rd, Cambridge, Ontario",43.381789360377354,-80.29086396037735,"450 Avenue Rd, Cambridge, Ontario N1R 5S4 Canada",T145,4.4,"['Parks', 'Hiking Trails', 'Parks', 'Hiking Trails']",https://www.tripadvisor.ca/Attraction_Review-g154985-d6624154-Reviews-Shade_s_Mills-Cambridge_Region_of_Waterloo_Ontario.html
146,351,Churchill Park,"200 Christopher Dr, Cambridge, Ontario",43.343874536512025,-80.30098149632401,"200 Christopher Dr, Cambridge, Ontario N1R 4S4 Canada",T146,4.3,"['Parks', 'Playgrounds', 'Parks', 'Playgrounds']",https://www.tripadvisor.ca/Attraction_Review-g154985-d7613236-Reviews-Churchill_Park-Cambridge_Region_of_Waterloo_Ontario.html
147,352,Grand River Brewing,"295 Ainslie St, Cambridge, Ontario",43.350815,-80.313503,"295 Ainslie St S, Cambridge, Ontario N1R 3L3 Canada",T147,4.4,"['Breweries', 'Breweries']",https://www.tripadvisor.ca/Attraction_Review-g154985-d4103200-Reviews-Grand_River_Brewing-Cambridge_Region_of_Waterloo_Ontario.html
148,354,McDougall Cottage Historic Site,"89 Grand Ave, Cambridge, Ontario",43.0138142,-79.2024786,"89 Grand Ave S, Cambridge, Ontario N1S 2L7 Canada",T148,4.7,"['Historic Sites', 'Historic Sites']",https://www.tripadvisor.ca/Attraction_Review-g154985-d584087-Reviews-McDougall_Cottage_Historic_Site-Cambridge_Region_of_Waterloo_Ontario.html
149,356,Playfit Kids Club,"366 Hespeler Rd, Cambridge, Ontario",43.391725,-80.3239685,"366 Hespeler Rd, Cambridge, Ontario N1R 6J6 Canada",T149,3.9,"['Playgrounds', 'Playgrounds']",https://www.tripadvisor.ca/Attraction_Review-g154985-d5523611-Reviews-Playfit_Kids_Club-Cambridge_Region_of_Waterloo_Ontario.html
150,357,Cambridge Ice Centre,"355 Hespeler Road, Cambridge, Ontario",43.39306335,-80.31950656519962,"355 Hespeler Road, Cambridge, Ontario N1R 6B3 Canada",T150,4.0,"['Sports Complexes', 'Sports Complexes']",https://www.tripadvisor.ca/Attraction_Review-g154985-d3350474-Reviews-Cambridge_Ice_Centre-Cambridge_Region_of_Waterloo_Ontario.html
151,358,Rhythm And Brews,"1000 Bishop St, Cambridge, Ontario",43.3959581,-80.3201873,"1000 Bishop St N, Cambridge, Ontario N3H 4V7 Canada",T151,4.8,"['Breweries', 'Breweries']",https://www.tripadvisor.ca/Attraction_Review-g154985-d15185140-Reviews-Rhythm_And_Brews-Cambridge_Region_of_Waterloo_Ontario.html
152,361,Cambridge Smartcentre,"22 Pinebush Rd, Cambridge, Ontario",43.40870913333333,-80.32469513333334,"22 Pinebush Rd, Cambridge, Ontario N1R 8K5 Canada",T152,3.8,"['Shopping Malls', 'Shopping Malls']",https://www.tripadvisor.ca/Attraction_Review-g154985-d9859336-Reviews-Cambridge_Smartcentre-Cambridge_Region_of_Waterloo_Ontario.html
153,363,Galt Arena Gardens,"98 Shade St, Cambridge, Ontario",43.3630356,-80.3065946,"98 Shade St, Cambridge, Ontario N1R 4J8 Canada",T153,5.0,"['Arenas & Stadiums', 'Arenas & Stadiums']",https://www.tripadvisor.ca/Attraction_Review-g154985-d17529204-Reviews-Galt_Arena_Gardens-Cambridge_Region_of_Waterloo_Ontario.html
154,366,Cambridge Sculpture Garden,"53 Grand Ave, Cambridge, Ontario",43.3922845,-80.3022428,"53 Grand Ave S N1S 2L7, Cambridge, Ontario N1S 2L7 Canada",T154,3.8,"['Gardens', 'Gardens']",https://www.tripadvisor.ca/Attraction_Review-g154985-d4096686-Reviews-Cambridge_Sculpture_Garden-Cambridge_Region_of_Waterloo_Ontario.html
155,367,Fire Hall Museum & Education Centre,"56 Dickson St, Cambridge, Ontario",43.3599515,-80.3119245,"56 Dickson St, Cambridge, Ontario N1R 1T8 Canada",T155,4.1,"['Speciality Museums', 'Speciality Museums']",https://www.tripadvisor.ca/Attraction_Review-g154985-d1743472-Reviews-Fire_Hall_Museum_Education_Centre-Cambridge_Region_of_Waterloo_Ontario.html
156,368,Hespeler Heritage Centre,"11 Tannery St, Cambridge, Ontario",43.430220266666666,-80.30980720000001,"11 Tannery St E located in the Old Town Hall, Cambridge, Ontario N3C 2C1 Canada",T156,4.0,"['History Museums', 'History Museums']",https://www.tripadvisor.ca/Attraction_Review-g154985-d10199817-Reviews-Hespeler_Heritage_Centre-Cambridge_Region_of_Waterloo_Ontario.html
157,369,Barncat Artisan Ales,"1600 Industrial Rd, Cambridge, Ontario",43.391865,-80.329378,"1600 Industrial Rd Unit B5, Cambridge, Ontario N3H 4W5 Canada",T157,5.0,"['Breweries', 'Breweries']",https://www.tripadvisor.ca/Attraction_Review-g154985-d13108836-Reviews-Barncat_Artisan_Ales-Cambridge_Region_of_Waterloo_Ontario.html
158,370,Hespeler Village Market,"11 Tannery St, Cambridge, Ontario",43.430220266666666,-80.30980720000001,"11 Tannery St E Towne Square, Cambridge, Ontario Canada",T158,5.0,"['Farmers Markets', 'Farmers Markets']",https://www.tripadvisor.ca/Attraction_Review-g154985-d12558438-Reviews-Hespeler_Village_Market-Cambridge_Region_of_Waterloo_Ontario.html
159,371,Soper Park,"120 Shade Street, Cambridge, Ontario",43.363242,-80.305912,"120 Shade Street, Cambridge, Ontario N1R 1M8 Canada",T159,3.0,"['Parks', 'Parks']",https://www.tripadvisor.ca/Attraction_Review-g154985-d13123601-Reviews-Soper_Park-Cambridge_Region_of_Waterloo_Ontario.html
160,373,Science North,"100 Ramsey Lake, Sudbury, Ontario",47.4465872,-82.3388179,"100 Ramsey Lake Rd, Sudbury, Ontario P3E 5S9 Canada",T160,4.6,"['Speciality Museums', 'Speciality Museums']",https://www.tripadvisor.ca/Attraction_Review-g155016-d269867-Reviews-Science_North-Sudbury_Northeastern_Ontario_Ontario.html
161,374,Big Nickel & Dynamic Earth,"122 Big Nickel, Sudbury, Ontario",46.4735124,-81.0338178,"122 Big Nickel Road, Sudbury, Ontario P3E 5S9 Canada",T161,4.3,"['Points of Interest & Landmarks', 'Points of Interest & Landmarks']",https://www.tripadvisor.ca/Attraction_Review-g155016-d186732-Reviews-Big_Nickel_Dynamic_Earth-Sudbury_Northeastern_Ontario_Ontario.html
162,375,Bell Park Walkway / Boardwalk,"506 Elizabeth St, Sudbury, Ontario",46.4814976,-80.9865827,"506 Elizabeth St, Sudbury, Ontario P3E 2X7 Canada",T162,4.6,"['Points of Interest & Landmarks', 'Piers & Boardwalks', 'Parks', 'Points of Interest & Landmarks', 'Piers & Boardwalks', 'Parks']",https://www.tripadvisor.ca/Attraction_Review-g155016-d4051141-Reviews-Bell_Park_Walkway_Boardwalk-Sudbury_Northeastern_Ontario_Ontario.html
163,377,Lake Laurentian Conservation Area,"2309 South Bay, Sudbury, Ontario",46.4882224,-80.96537068340258,"2309 South Bay Rd, Sudbury, Ontario P3E 6H7 Canada",T163,4.5,"['Nature & Wildlife Areas', 'Nature & Wildlife Areas']",https://www.tripadvisor.ca/Attraction_Review-g155016-d4056540-Reviews-Lake_Laurentian_Conservation_Area-Sudbury_Northeastern_Ontario_Ontario.html
164,378,Grotto of Our Lady of Lourdes,"271 Van Horne, Sudbury, Ontario",46.4867831,-80.9825744,"271 Van Horne St, Sudbury, Ontario P3B 1J1 Canada",T164,4.4,"['Points of Interest & Landmarks', 'Points of Interest & Landmarks']",https://www.tripadvisor.ca/Attraction_Review-g155016-d6583805-Reviews-Grotto_of_Our_Lady_of_Lourdes-Sudbury_Northeastern_Ontario_Ontario.html
165,379,Fielding Memorial Park,"345 Fielding Road, Sudbury, Ontario",46.42660415,-81.09655915793516,"345 Fielding Road, Sudbury, Ontario P3Y 1L8 Canada",T165,4.2,"['Parks', 'Parks']",https://www.tripadvisor.ca/Attraction_Review-g155016-d4444207-Reviews-Fielding_Memorial_Park-Sudbury_Northeastern_Ontario_Ontario.html
166,382,Bell Park,"100 Ramsey Lake, Sudbury, Ontario",47.4465872,-82.3388179,"100 Ramsey Lake Rd, Sudbury, Ontario P3E 5S9 Canada",T166,4.5,"['Bodies of Water', 'Beaches', 'Parks', 'Bodies of Water', 'Beaches', 'Parks']",https://www.tripadvisor.ca/Attraction_Review-g155016-d8246279-Reviews-Bell_Park-Sudbury_Northeastern_Ontario_Ontario.html
167,384,Bay Used Books,"124 Elm St, Sudbury, Ontario",46.493372699999995,-81.0000313749032,"124 Elm St, Sudbury, Ontario P3C 1T6 Canada",T167,4.8,"['Points of Interest & Landmarks', 'Points of Interest & Landmarks']",https://www.tripadvisor.ca/Attraction_Review-g155016-d10540637-Reviews-Bay_Used_Books-Sudbury_Northeastern_Ontario_Ontario.html
168,386,Northern Exotics,"517 Kathleen St, Sudbury, Ontario",46.5001158,-81.00315084985809,"517 Kathleen St, Sudbury, Ontario P3C 2N1 Canada",T168,4.4,"['Zoos', 'Zoos']",https://www.tripadvisor.ca/Attraction_Review-g155016-d10439768-Reviews-Northern_Exotics-Sudbury_Northeastern_Ontario_Ontario.html
169,387,Stack Brewing,"1350 Kelly Lake, Sudbury, Ontario",46.4646228,-81.0281479,"1350 Kelly Lake Rd, Sudbury, Ontario P3E 5P4 Canada",T169,4.1,"['Breweries', 'Breweries']",https://www.tripadvisor.ca/Attraction_Review-g155016-d4473953-Reviews-Stack_Brewing-Sudbury_Northeastern_Ontario_Ontario.html
170,388,Moonlight Beach,"Moonlight Beach Avenue, Sudbury, Ontario",46.473659749999996,-80.90982240721718,"Moonlight Beach Avenue, Sudbury, Ontario P3B 3V7 Canada",T170,4.0,"['Beaches', 'Beaches']",https://www.tripadvisor.ca/Attraction_Review-g155016-d8532015-Reviews-Moonlight_Beach-Sudbury_Northeastern_Ontario_Ontario.html
171,389,Anderson Farm Museum,"550 Regional Rd, Sudbury, Ontario",46.5940604,-81.1729779,"550 Regional Rd 24, Sudbury, Ontario P3Y 1M9 Canada",T171,4.5,"['Speciality Museums', 'Speciality Museums']",https://www.tripadvisor.ca/Attraction_Review-g155016-d4090074-Reviews-Anderson_Farm_Museum-Sudbury_Northeastern_Ontario_Ontario.html
172,390,Sudbury Theatre Centre,"170 Shaughnessy St, Sudbury, Ontario",46.48903,-80.99000507498718,"170 Shaughnessy St, Sudbury, Ontario P3E 3E7 Canada",T172,4.5,"['Theatres', 'Theatres']",https://www.tripadvisor.ca/Attraction_Review-g155016-d3307969-Reviews-Sudbury_Theatre_Centre-Sudbury_Northeastern_Ontario_Ontario.html
173,392,Northern Ontario Railroad Museum & Heritage Centre,"26 Bloor St, Capreol, Ontario",46.7091605,-80.9242043,"26 Bloor St, Capreol, Sudbury, Ontario P0M 1H0 Canada",T173,4.6,"['History Museums', 'History Museums']",https://www.tripadvisor.ca/Attraction_Review-g7113380-d4063667-Reviews-Northern_Ontario_Railroad_Museum_Heritage_Centre-Capreol_Sudbury_Northeastern_On.html
174,393,Inco Superstack,"18 Rink St, Sudbury, Ontario",46.4773486,-81.06343829040455,"18 Rink St, Sudbury, Ontario P0M 1N0 Canada",T174,3.5,"['Points of Interest & Landmarks', 'Points of Interest & Landmarks']",https://www.tripadvisor.ca/Attraction_Review-g155016-d4404582-Reviews-Inco_Superstack-Sudbury_Northeastern_Ontario_Ontario.html
175,394,Kalmo Park Conservation Area,"Sandy Beach Road, Val Caron, Ontario",46.6098416,-80.9756324,"Sandy Beach Road, Val Caron, Sudbury, Ontario P0M 1E0 Canada",T175,4.4,"['Nature & Wildlife Areas', 'Parks', 'Nature & Wildlife Areas', 'Parks']",https://www.tripadvisor.ca/Attraction_Review-g4045236-d6602273-Reviews-Kalmo_Park_Conservation_Area-Val_Caron_Sudbury_Northeastern_Ontario_Ontario.html
176,395,Rotary Park Lookout,"744 Beatrice Cres, Sudbury, Ontario",46.511008950000004,-80.960319,"744 Beatrice Cres, Sudbury, Ontario P3A 5B5 Canada",T176,4.1,"['Points of Interest & Landmarks', 'Parks', 'Points of Interest & Landmarks', 'Parks']",https://www.tripadvisor.ca/Attraction_Review-g155016-d4066554-Reviews-Rotary_Park_Lookout-Sudbury_Northeastern_Ontario_Ontario.html
177,396,Sudbury Community Arena,"240 Elgin St, Sudbury, Ontario",46.4883263,-80.9931897,"240 Elgin St, Sudbury, Ontario P3E 3N6 Canada",T177,3.3,"['Arenas & Stadiums', 'Arenas & Stadiums']",https://www.tripadvisor.ca/Attraction_Review-g155016-d4459718-Reviews-Sudbury_Community_Arena-Sudbury_Northeastern_Ontario_Ontario.html
178,399,Art Gallery of Sudbury,"251 John St, Sudbury, Ontario",46.4833756,-80.9892339,"251 John St, Sudbury, Ontario P3E 1P9 Canada",T178,3.7,"['Art Galleries', 'Art Galleries']",https://www.tripadvisor.ca/Attraction_Review-g155016-d3307972-Reviews-Art_Gallery_of_Sudbury-Sudbury_Northeastern_Ontario_Ontario.html
179,400,Crosscut Distillery,"1347 Kelly Lake, Sudbury, Ontario",46.4646228,-81.0281479,"1347 Kelly Lake Rd, Sudbury, Ontario P3E 5P5 Canada",T179,5.0,"['Distilleries', 'Distilleries']",https://www.tripadvisor.ca/Attraction_Review-g155016-d14096948-Reviews-Crosscut_Distillery-Sudbury_Northeastern_Ontario_Ontario.html
180,402,Wagonwheel Ranch,"2200 Kenneth Dr, Val Therese, Ontario",46.6524283,-81.0650014,"2200 Kenneth Dr, Val Therese, Sudbury, Ontario P3P 1S4 Canada",T180,5.0,"['Ranches', 'Ranches']",https://www.tripadvisor.ca/Attraction_Review-g15339486-d4755369-Reviews-Wagonwheel_Ranch-Val_Therese_Sudbury_Northeastern_Ontario_Ontario.html
181,403,OLG Slots at Sudbury Downs,"400 Bonin St, Chelmsford, Ontario",46.5795121,-81.1664579,"400 Bonin St, Chelmsford, Sudbury, Ontario P0M 1L0 Canada",T181,3.1,"['Casinos', 'Horse Tracks', 'Casinos', 'Horse Tracks']",https://www.tripadvisor.ca/Attraction_Review-g2534428-d9749507-Reviews-OLG_Slots_at_Sudbury_Downs-Chelmsford_Sudbury_Northeastern_Ontario_Ontario.html
182,404,Flour Mill Museum,"245 St. Charles, Sudbury, Ontario",46.363041,-80.417175,"245 St. Charles St, Sudbury, Ontario P3C 2Z3 Canada",T182,4.0,"['Speciality Museums', 'Speciality Museums']",https://www.tripadvisor.ca/Attraction_Review-g155016-d4293408-Reviews-Flour_Mill_Museum-Sudbury_Northeastern_Ontario_Ontario.html
183,405,St. Germain Farm Museum,"679 Dominion Dr, Sudbury, Ontario",46.63864637447397,-80.95163126640199,"679 Dominion Dr Hanmer, Sudbury, Ontario P3P 0A9 Canada",T183,4.5,"['Speciality Museums', 'Speciality Museums']",https://www.tripadvisor.ca/Attraction_Review-g155016-d6599508-Reviews-St_Germain_Farm_Museum-Sudbury_Northeastern_Ontario_Ontario.html
184,406,Theatre Cambrian,"40 Eyre St, Sudbury, Ontario",46.49241245,-81.00801170724004,"40 Eyre St, Sudbury, Ontario P3C 4A5 Canada",T184,4.2,"['Theatres', 'Theatres']",https://www.tripadvisor.ca/Attraction_Review-g155016-d4458101-Reviews-Theatre_Cambrian-Sudbury_Northeastern_Ontario_Ontario.html
185,407,The Shoals Provincial Park,"Highway 101 Chapleau, Sudbury, Ontario",47.8416702,-83.4036099,"Highway 101 Chapleau, Sudbury, Ontario P0M 1K0 Canada",T185,3.0,"['Parks', 'Parks']",https://www.tripadvisor.ca/Attraction_Review-g155016-d5121218-Reviews-The_Shoals_Provincial_Park-Sudbury_Northeastern_Ontario_Ontario.html
186,408,Wakami Lake Provincial Park,"Highway 667 Sultan, Sudbury, Ontario",47.5887095,-82.7795742,"Highway 667 Sultan, Sudbury, Ontario P0M 2Z0 Canada",T186,4.5,"['Parks', 'Parks']",https://www.tripadvisor.ca/Attraction_Review-g155016-d6484887-Reviews-Wakami_Lake_Provincial_Park-Sudbury_Northeastern_Ontario_Ontario.html
187,409,Southridge Mall,"Southridge Mall 1933, Sudbury, Ontario",46.4493684,-81.00275766299788,"Southridge Mall 1933 Regent St, Sudbury, Ontario P3E 5R2 Canada",T187,1.0,"['Shopping Malls', 'Shopping Malls']",https://www.tripadvisor.ca/Attraction_Review-g155016-d14116511-Reviews-Southridge_Mall-Sudbury_Northeastern_Ontario_Ontario.html
188,410,Copper Cliff Museum,"26 Balsam Street, Sudbury, Ontario",46.641192475000004,-81.39121610000001,"26 Balsam Street Museum hours are for July and August - museum is open by appointment for the rest of the year., Sudbury, Ontario Canada",T188,2.5,"['Speciality Museums', 'Speciality Museums']",https://www.tripadvisor.ca/Attraction_Review-g155016-d4293405-Reviews-Copper_Cliff_Museum-Sudbury_Northeastern_Ontario_Ontario.html
189,411,Pine Ridge Ranch,"5000 Dupuis Dr, Sudbury, Ontario",46.6516218,-80.8824465,"5000 Dupuis Dr, Sudbury, Ontario P3P 0B3 Canada",T189,2.0,"['Ranches', 'Ranches']",https://www.tripadvisor.ca/Attraction_Review-g155016-d4063700-Reviews-Pine_Ridge_Ranch-Sudbury_Northeastern_Ontario_Ontario.html
190,412,Galerie Du Nouvel-Ontario,"54 Elgin St, Sudbury, Ontario",46.4927656,-80.9963426,"54 Elgin St, Sudbury, Ontario P3E 3N2 Canada",T190,4.5,"['Art Galleries', 'Art Galleries']",https://www.tripadvisor.ca/Attraction_Review-g155016-d4090082-Reviews-Galerie_Du_Nouvel_Ontario-Sudbury_Northeastern_Ontario_Ontario.html
191,413,Sudbury Symphony Orchestra,"303 York St, Sudbury, Ontario",46.4756397,-81.0068087,"303 York St, Sudbury, Ontario P3E 2A5 Canada",T191,5.0,"['Symphonies', 'Symphonies']",https://www.tripadvisor.ca/Attraction_Review-g155016-d4086185-Reviews-Sudbury_Symphony_Orchestra-Sudbury_Northeastern_Ontario_Ontario.html
192,414,Eat Local Sudbury Co-op,"176 Larch St, Sudbury, Ontario",46.4914421,-80.9906122,"176 Larch St, Sudbury, Ontario P3E 1C5 Canada",T192,4.0,"['Farmers Markets', 'Farmers Markets']",https://www.tripadvisor.ca/Attraction_Review-g155016-d10172722-Reviews-Eat_Local_Sudbury_Co_op-Sudbury_Northeastern_Ontario_Ontario.html
193,415,Le Theatre du Nouvel-Ontario,"21 Lasalle Blvd, Sudbury, Ontario",46.5170977,-80.99327056547148,"21 Lasalle Blvd P3A 6B1, Sudbury, Ontario P3A 6B1 Canada",T193,4.0,"['Theatres', 'Theatres']",https://www.tripadvisor.ca/Attraction_Review-g155016-d4178279-Reviews-Le_Theatre_du_Nouvel_Ontario-Sudbury_Northeastern_Ontario_Ontario.html
194,416,Stopciati Gallery,"153 Applegrove St, Sudbury, Ontario",46.4916922,-81.00168975,"153 Applegrove St, Sudbury, Ontario P3C 1N2 Canada",T194,4.0,"['Art Galleries', 'Art Galleries']",https://www.tripadvisor.ca/Attraction_Review-g155016-d3611640-Reviews-Stopciati_Gallery-Sudbury_Northeastern_Ontario_Ontario.html
195,417,Sudbury Region Police Museum,"190 Brady St, Sudbury, Ontario",46.4899039,-80.99104669886509,"190 Brady St, Sudbury, Ontario P3E 1C7 Canada",T195,3.0,"['Speciality Museums', 'Speciality Museums']",https://www.tripadvisor.ca/Attraction_Review-g155016-d6918394-Reviews-Sudbury_Region_Police_Museum-Sudbury_Northeastern_Ontario_Ontario.html
196,420,Church of Our Lady Immaculate,"28 Norfolk St, Guelph, Ontario",43.54303195,-80.25165561337639,"28 Norfolk St The Church has recently been designated by Rome as the BASILICA of Our Lady Immaculate, Guelph, Ontario N1H 4H8 Canada",T196,4.7,"['Churches & Cathedrals', 'Churches & Cathedrals']",https://www.tripadvisor.ca/Attraction_Review-g154989-d3377104-Reviews-Church_of_Our_Lady_Immaculate-Guelph_Ontario.html
197,421,Riverside Park,"709 Woolwich St, Guelph, Ontario",43.5613214,-80.2719566,"709 Woolwich St, Guelph, Ontario N1H 3Y8 Canada",T197,4.5,"['Parks', 'Parks']",https://www.tripadvisor.ca/Attraction_Review-g154989-d4916258-Reviews-Riverside_Park-Guelph_Ontario.html
198,423,Aberfoyle Antique Market,"57 Brock Road, Guelph, Ontario",43.4989468,-80.1861566,"57 Brock Road South, Guelph, Ontario N1H 6H9 Canada",T198,4.4,"['Flea & Street Markets', 'Flea & Street Markets']",https://www.tripadvisor.ca/Attraction_Review-g154989-d4106782-Reviews-Aberfoyle_Antique_Market-Guelph_Ontario.html
199,424,University of Guelph Arboretum,"College Avenue East, Guelph, Ontario",43.542994,-80.2178156,"College Avenue East, Guelph, Ontario Canada",T199,4.4,"['Points of Interest & Landmarks', 'Points of Interest & Landmarks']",https://www.tripadvisor.ca/Attraction_Review-g154989-d4039769-Reviews-University_of_Guelph_Arboretum-Guelph_Ontario.html
200,425,River Run Centre,"35 Woolwich St, Guelph, Ontario",43.547455,-80.24522,"35 Woolwich St, Guelph, Ontario N1H 3V1 Canada",T200,4.4,"['Theatres', 'Theatres']",https://www.tripadvisor.ca/Attraction_Review-g154989-d2649420-Reviews-River_Run_Centre-Guelph_Ontario.html
201,426,Guelph Civic Museum,"52 Norfolk St, Guelph, Ontario",43.54371165,-80.25064155,"52 Norfolk St, Guelph, Ontario N1H 4H8 Canada",T201,4.4,"['Points of Interest & Landmarks', 'History Museums', 'Points of Interest & Landmarks', 'History Museums']",https://www.tripadvisor.ca/Attraction_Review-g154989-d4039708-Reviews-Guelph_Civic_Museum-Guelph_Ontario.html
202,427,Guelph Market Square,"1 Carden St, Guelph, Ontario",43.5432147,-80.24872349609635,"1 Carden St, Guelph, Ontario N1H 3A1 Canada",T202,4.4,"['Fountains', 'Fountains']",https://www.tripadvisor.ca/Attraction_Review-g154989-d3435199-Reviews-Guelph_Market_Square-Guelph_Ontario.html
203,428,Guelph Lake Conservation Area,"7743 Conservation Rd, Guelph, Ontario",43.5825268,-80.2893721,"7743 Conservation Rd, Guelph, Ontario N1H 6J1 Canada",T203,3.7,"['Nature & Wildlife Areas', 'Nature & Wildlife Areas']",https://www.tripadvisor.ca/Attraction_Review-g154989-d625914-Reviews-Guelph_Lake_Conservation_Area-Guelph_Ontario.html
204,429,McCrae House,"108 Water St, Guelph, Ontario",43.536165,-80.24448875000002,"108 Water St, Guelph, Ontario N1G 1A6 Canada",T204,4.4,"['Historic Sites', 'Historic Sites']",https://www.tripadvisor.ca/Attraction_Review-g154989-d3377099-Reviews-McCrae_House-Guelph_Ontario.html
205,431,Royal City Park,"139 Gordon Street, Guelph, Ontario",43.5382335,-80.241356,"139 Gordon Street, Guelph, Ontario Canada",T205,4.4,"['Parks', 'Parks']",https://www.tripadvisor.ca/Attraction_Review-g154989-d5006741-Reviews-Royal_City_Park-Guelph_Ontario.html
206,432,"St. George's Anglican Church, Guelph","99 Woolwich St, Guelph, Ontario",43.547903649999995,-80.24849062001334,"99 Woolwich St, Guelph, Ontario N1H 3V1 Canada",T206,4.7,"['Churches & Cathedrals', 'Churches & Cathedrals']",https://www.tripadvisor.ca/Attraction_Review-g154989-d8148111-Reviews-St_George_s_Anglican_Church_Guelph-Guelph_Ontario.html
207,433,The Sleeman Centre,"50 Woolwich St, Guelph, Ontario",43.54728914444444,-80.24756751111111,"50 Woolwich St, Guelph, Ontario N1H 3T9 Canada",T207,4.0,"['Arenas & Stadiums', 'Arenas & Stadiums']",https://www.tripadvisor.ca/Attraction_Review-g154989-d3348409-Reviews-The_Sleeman_Centre-Guelph_Ontario.html
208,434,Guelph Farmers' Market,"2 Gordon Street, Guelph, Ontario",43.5423798,-80.2483870273758,"2 Gordon Street Corner of Gordon and Waterloo Avenue, Guelph, Ontario N1H 4G7 Canada",T208,3.9,"['Farmers Markets', 'Farmers Markets']",https://www.tripadvisor.ca/Attraction_Review-g154989-d4106784-Reviews-Guelph_Farmers_Market-Guelph_Ontario.html
209,435,Stone Road Mall,"Stone Road Mall, Guelph, Ontario",43.5183963,-80.23863209908859,"Stone Road Mall 435 Stone Rd W, Guelph, Ontario N1G 2X6 Canada",T209,3.9,"['Shopping Malls', 'Shopping Malls']",https://www.tripadvisor.ca/Attraction_Review-g154989-d4335073-Reviews-Stone_Road_Mall-Guelph_Ontario.html
210,436,Wellington Brewery,"950 Woodlawn Rd, Guelph, Ontario",43.5342268,-80.3196688,"950 Woodlawn Rd W, Guelph, Ontario N1K 1G2 Canada",T210,4.5,"['Breweries', 'Breweries']",https://www.tripadvisor.ca/Attraction_Review-g154989-d677942-Reviews-Wellington_Brewery-Guelph_Ontario.html
211,437,Sleeman Brewery,"551 Clair Rd, Guelph, Ontario",43.4870846,-80.2069182,"551 Clair Rd W, Guelph, Ontario N1L 1E9 Canada",T211,4.6,"['Breweries', 'Breweries']",https://www.tripadvisor.ca/Attraction_Review-g154989-d8533093-Reviews-Sleeman_Brewery-Guelph_Ontario.html
212,438,Royal City Brewing Company,"199 Victoria Rd, Guelph, Ontario",43.5522434,-80.2250167,"199 Victoria Rd S, Guelph, Ontario N1E 6T9 Canada",T212,4.4,"['Breweries', 'Breweries']",https://www.tripadvisor.ca/Attraction_Review-g154989-d8517378-Reviews-Royal_City_Brewing_Company-Guelph_Ontario.html
213,439,StoneHammer Brewing,"355 Elmira Road, Guelph, Ontario",43.5286853,-80.3016731,"355 Elmira Road North Unit 135, Guelph, Ontario N1K 1S5 Canada",T213,5.0,"['Breweries', 'Breweries']",https://www.tripadvisor.ca/Attraction_Review-g154989-d4103205-Reviews-StoneHammer_Brewing-Guelph_Ontario.html
214,440,Guelph Public Library,"100 Norfolk St, Guelph, Ontario",43.5455981,-80.2525102,"100 Norfolk St, Guelph, Ontario N1H 4J6 Canada",T214,4.6,"['Points of Interest & Landmarks', 'Libraries', 'Points of Interest & Landmarks', 'Libraries']",https://www.tripadvisor.ca/Attraction_Review-g154989-d5002155-Reviews-Guelph_Public_Library-Guelph_Ontario.html
215,441,Exhibition Park,"81 London Road, Guelph, Ontario",43.54841245263158,-80.2595773,"81 London Road West, Guelph, Ontario N1H 2B8 Canada",T215,5.0,"['Parks', 'Playgrounds', 'Parks', 'Playgrounds']",https://www.tripadvisor.ca/Attraction_Review-g154989-d15027204-Reviews-Exhibition_Park-Guelph_Ontario.html
216,442,Funmazing Playcentre,"785 Imperial Rd, Guelph, Ontario",43.5478543,-80.3078019,"785 Imperial Rd N, Guelph, Ontario N1K 1X4 Canada",T216,3.8,"['Playgrounds', 'Playgrounds']",https://www.tripadvisor.ca/Attraction_Review-g154989-d4757186-Reviews-Funmazing_Playcentre-Guelph_Ontario.html
217,443,Guelph Grotto Climbing Company,"199 Victoria Rd, Guelph, Ontario",43.5522434,-80.2250167,"199 Victoria Rd S, Guelph, Ontario N1E 6T9 Canada",T217,4.4,"['Sports Complexes', 'Sports Complexes']",https://www.tripadvisor.ca/Attraction_Review-g154989-d3976947-Reviews-Guelph_Grotto_Climbing_Company-Guelph_Ontario.html
218,444,Len's Mill Store,"234 Victoria Rd, Guelph, Ontario",43.5511604,-80.22253418214285,"234 Victoria Rd S, Guelph, Ontario N1E 5R1 Canada",T218,3.3,"['Factory Outlets', 'Factory Outlets']",https://www.tripadvisor.ca/Attraction_Review-g154989-d10716092-Reviews-Len_s_Mill_Store-Guelph_Ontario.html
219,445,Physics Observatory Telescope,"50 Stone Rd, Guelph, Ontario",43.526658,-80.2245778,"50 Stone Rd E MacNaughton Building, Guelph, Ontario N1G 2W1 Canada",T219,4.9,"['Educational sites', 'Educational sites']",https://www.tripadvisor.ca/Attraction_Review-g154989-d8479681-Reviews-Physics_Observatory_Telescope-Guelph_Ontario.html
220,446,Dixon's Distilled Spirits,"355 Elmira Rd, Guelph, Ontario",43.5286853,-80.3016731,"355 Elmira Rd North Unit 106, Guelph, Ontario N1K 1S5 Canada",T220,4.2,"['Distilleries', 'Distilleries']",https://www.tripadvisor.ca/Attraction_Review-g154989-d12387069-Reviews-Dixon_s_Distilled_Spirits-Guelph_Ontario.html
221,449,St. Andrew's Presbyterian Church,"161 Norfolk St, Guelph, Ontario",43.54753175,-80.25360097961907,"161 Norfolk St, Guelph, Ontario N1H 4J7 Canada",T221,4.3,"['Sacred & Religious Sites', 'Churches & Cathedrals', 'Sacred & Religious Sites', 'Churches & Cathedrals']",https://www.tripadvisor.ca/Attraction_Review-g154989-d8148104-Reviews-St_Andrew_s_Presbyterian_Church-Guelph_Ontario.html
222,450,Hammond Museum of Radio,"595 Southgate Dr, Guelph, Ontario",43.4943038,-80.21532254832371,"595 Southgate Dr, Guelph, Ontario N1G 3W6 Canada",T222,4.3,"['Speciality Museums', 'Speciality Museums']",https://www.tripadvisor.ca/Attraction_Review-g154989-d7675237-Reviews-Hammond_Museum_of_Radio-Guelph_Ontario.html
223,451,Fixed Gear Brewing Co.,"20 Alma St, Guelph, Ontario",43.5370229,-80.2642493,"20 Alma St S, Guelph, Ontario N1H 5W5 Canada",T223,4.7,"['Breweries', 'Breweries']",https://www.tripadvisor.ca/Attraction_Review-g154989-d17626077-Reviews-Fixed_Gear_Brewing_Co-Guelph_Ontario.html
224,452,Shady Grove Maple Co.,"6640 Fife Rd, Guelph, Ontario",43.5187634,-80.2688722,"6640 Fife Rd, Guelph, Ontario N1H 6J4 Canada",T224,4.4,"['Farms', 'Farms']",https://www.tripadvisor.ca/Attraction_Review-g154989-d6563259-Reviews-Shady_Grove_Maple_Co-Guelph_Ontario.html
225,453,Art Gallery of Guelph,"358 Gordon St, Guelph, Ontario",43.5330827,-80.23301210090301,"358 Gordon St, Guelph, Ontario N1G 1Y1 Canada",T225,4.1,"['Art Galleries', 'Art Galleries']",https://www.tripadvisor.ca/Attraction_Review-g154989-d2507193-Reviews-Art_Gallery_of_Guelph-Guelph_Ontario.html
226,454,Hanlon Creek Park,"505 Kortright Road, Guelph, Ontario",43.5220566,-80.2126836,"505 Kortright Road West, Guelph, Ontario N1G 4Y9 Canada",T226,4.3,"['Parks', 'Playgrounds', 'Parks', 'Playgrounds']",https://www.tripadvisor.ca/Attraction_Review-g154989-d12959209-Reviews-Hanlon_Creek_Park-Guelph_Ontario.html
227,455,Guelph Little Theatre,"176 Morris St, Guelph, Ontario",43.5469749,-80.2309797,"176 Morris St, Guelph, Ontario N1E 5M7 Canada",T227,5.0,"['Theatres', 'Theatres']",https://www.tripadvisor.ca/Attraction_Review-g154989-d12492141-Reviews-Guelph_Little_Theatre-Guelph_Ontario.html
228,456,Garden of Grace,"28 Norfolk St, Guelph, Ontario",43.54303195,-80.25165561337639,"28 Norfolk St On the Basilica of Our Lady grounds, Guelph, Ontario N1H 4H8 Canada",T228,5.0,"['Points of Interest & Landmarks', 'Monuments & Statues', 'Scenic Walking Areas', 'Points of Interest & Landmarks', 'Monuments & Statues', 'Scenic Walking Areas']",https://www.tripadvisor.ca/Attraction_Review-g154989-d18187780-Reviews-Garden_of_Grace-Guelph_Ontario.html
229,457,Masterpiece Wonkies and Art Gallery,"7100 Fife Rd, Guelph, Ontario",43.50489387049294,-80.28812996986017,"7100 Fife Rd, Guelph, Ontario N1H 6J4 Canada",T229,5.0,"['Art Galleries', 'Art Galleries']",https://www.tripadvisor.ca/Attraction_Review-g154989-d7235301-Reviews-Masterpiece_Wonkies_and_Art_Gallery-Guelph_Ontario.html
230,459,Victoria Road Recreation Centre,"151 Victoria Rd, Guelph, Ontario",43.563786,-80.240291,"151 Victoria Rd N, Guelph, Ontario N1E 5H4 Canada",T230,4.0,"['Sports Complexes', 'Sports Complexes']",https://www.tripadvisor.ca/Attraction_Review-g154989-d17529194-Reviews-Victoria_Road_Recreation_Centre-Guelph_Ontario.html
231,460,"Royal City Church, Guelph","50 Quebec St, Guelph, Ontario",43.54593585,-80.25036095,"50 Quebec St, Guelph, Ontario N1H 2T4 Canada",T231,4.5,"['Churches & Cathedrals', 'Churches & Cathedrals']",https://www.tripadvisor.ca/Attraction_Review-g154989-d8278202-Reviews-Royal_City_Church_Guelph-Guelph_Ontario.html
232,461,"Knox Presbyterian Church, Guelph","20 Quebec St, Guelph, Ontario",43.545816450000004,-80.2511606888041,"20 Quebec St, Guelph, Ontario N1H 2T4 Canada",T232,4.2,"['Churches & Cathedrals', 'Churches & Cathedrals']",https://www.tripadvisor.ca/Attraction_Review-g154989-d8275203-Reviews-Knox_Presbyterian_Church_Guelph-Guelph_Ontario.html
233,463,Byng Island Conservation Area,"4969 Haldimand Road, Dunnville, Ontario",42.8986116,-79.6510082,"4969 Haldimand Road 20, Dunnville, Haldimand, Ontario N0A 1C0 Canada",T233,4.0,"['Nature & Wildlife Areas', 'Nature & Wildlife Areas']",https://www.tripadvisor.ca/Attraction_Review-g793718-d625909-Reviews-Byng_Island_Conservation_Area-Dunnville_Haldimand_Ontario.html
234,465,Richardson's Farm and Market,"131 River Rd, Dunnville, Ontario",42.9025328,-79.617115,"131 River Rd, Dunnville, Haldimand, Ontario N1A 2W3 Canada",T234,4.8,"['Farms', 'Farms']",https://www.tripadvisor.ca/Attraction_Review-g793718-d6215178-Reviews-Richardson_s_Farm_and_Market-Dunnville_Haldimand_Ontario.html
235,466,Snyder's Sweet Corn,"1863 Haldimand Road, Caledonia, Ontario",43.0838007,-79.9204191,"1863 Haldimand Road 9, Caledonia, Haldimand, Ontario N3W 2K1 Canada",T235,4.8,"['Farms', 'Farms']",https://www.tripadvisor.ca/Attraction_Review-g676142-d12726707-Reviews-Snyder_s_Sweet_Corn-Caledonia_Haldimand_Ontario.html
236,467,Muddy the Mudcat Statue,"Main Street West, Dunnville, Ontario",42.9057288,-79.6305844,"Main Street West & Robinson Road Centennial Park, Dunnville, Haldimand, Ontario N1A 2W1 Canada",T236,3.9,"['Points of Interest & Landmarks', 'Monuments & Statues', 'Points of Interest & Landmarks', 'Monuments & Statues']",https://www.tripadvisor.ca/Attraction_Review-g793718-d7125467-Reviews-Muddy_the_Mudcat_Statue-Dunnville_Haldimand_Ontario.html
237,468,Kinsmen Park Trail,"49 Caithness Street, Caledonia, Ontario",43.0746951,-79.9583794,"49 Caithness Street West, Caledonia, Haldimand, Ontario Canada",T237,4.8,"['Parks', 'Playgrounds', 'Parks', 'Playgrounds']",https://www.tripadvisor.ca/Attraction_Review-g676142-d10692278-Reviews-Kinsmen_Park_Trail-Caledonia_Haldimand_Ontario.html
238,470,No. 6 Rcaf Dunnville Museum,"536 Port Maitland, Dunnville, Ontario",42.8856463,-79.6027792,"536 Port Maitland Rd, Dunnville, Haldimand, Ontario N1A 2W6 Canada",T238,4.5,"['Speciality Museums', 'Speciality Museums']",https://www.tripadvisor.ca/Attraction_Review-g793718-d6498246-Reviews-No_6_Rcaf_Dunnville_Museum-Dunnville_Haldimand_Ontario.html
239,473,Ruthven Park National Historic Site,"243 Haldimand Highway, Cayuga, Ontario",42.97910525,-79.87523101016885,"243 Haldimand Highway #54, Cayuga, Haldimand, Ontario N0A 1E0 Canada",T239,4.6,"['Historic Sites', 'Historic Sites']",https://www.tripadvisor.ca/Attraction_Review-g2044824-d622516-Reviews-Ruthven_Park_National_Historic_Site-Cayuga_Haldimand_Ontario.html
240,474,Cottonwood Mansion Museum,"740 Haldimand Road, Selkirk, Ontario",42.8374174,-79.933283,"740 Haldimand Road 53, Selkirk, Haldimand, Ontario N0A 1P0 Canada",T240,4.8,"['Speciality Museums', 'Historic Sites', 'Architectural Buildings', 'Speciality Museums', 'Historic Sites', 'Architectural Buildings']",https://www.tripadvisor.ca/Attraction_Review-g3363963-d3512801-Reviews-Cottonwood_Mansion_Museum-Selkirk_Haldimand_Ontario.html
241,476,Caledonia Lions Pool & Splash Pad,"25 Caithness St, Caledonia, Ontario",43.07361795405406,-79.9514789891892,"25 Caithness St W, Caledonia, Haldimand, Ontario N3W 1B7 Canada",T241,4.0,"['Sports Complexes', 'Sports Complexes']",https://www.tripadvisor.ca/Attraction_Review-g676142-d10532202-Reviews-Caledonia_Lions_Pool_Splash_Pad-Caledonia_Haldimand_Ontario.html
242,477,Concession Road Brewing Co.,"17 Talbot St, Jarvis, Ontario",42.8844313,-80.11393,"17 Talbot St E Unit #4, Jarvis, Haldimand, Ontario N0A 1J0 Canada",T242,4.9,"['Breweries', 'Breweries']",https://www.tripadvisor.ca/Attraction_Review-g3834923-d14528902-Reviews-Concession_Road_Brewing_Co-Jarvis_Haldimand_Ontario.html
243,478,Caledonia Old Mill,"146 Forfar St, Caledonia, Ontario",43.0716568,-79.958229,"146 Forfar St W, Caledonia, Haldimand, Ontario N3W 1J2 Canada",T243,3.9,"['Points of Interest & Landmarks', 'Points of Interest & Landmarks']",https://www.tripadvisor.ca/Attraction_Review-g676142-d6498245-Reviews-Caledonia_Old_Mill-Caledonia_Haldimand_Ontario.html
244,481,Port Maitland Lighthouse,"Port Maitland Road, Port Maitland, Ontario",42.8529569,-79.5797869,"Port Maitland Road, Port Maitland, Haldimand, Ontario Canada",T244,3.8,"['Points of Interest & Landmarks', 'Lighthouses', 'Points of Interest & Landmarks', 'Lighthouses']",https://www.tripadvisor.ca/Attraction_Review-g20895285-d6913384-Reviews-Port_Maitland_Lighthouse-Port_Maitland_Haldimand_Ontario.html
245,483,Blueberry Knoll Berry Farm,"1091 Hutchinson Rd, Lowbanks, Ontario",42.8841466,-79.4579132,"1091 Hutchinson Rd, Lowbanks, Haldimand, Ontario N0A 1K0 Canada",T245,5.0,"['Farms', 'Farms']",https://www.tripadvisor.ca/Attraction_Review-g3205097-d12486694-Reviews-Blueberry_Knoll_Berry_Farm-Lowbanks_Haldimand_Ontario.html
246,484,Wilson MacDonald Memorial School Museum,"3513 Rainham Rd, Selkirk, Ontario",42.83279347759206,-79.9368162232959,"3513 Rainham Rd, Selkirk, Haldimand, Ontario N0A 1P0 Canada",T246,4.0,"['History Museums', 'History Museums']",https://www.tripadvisor.ca/Attraction_Review-g3363963-d4520798-Reviews-Wilson_MacDonald_Memorial_School_Museum-Selkirk_Haldimand_Ontario.html
247,485,Haldimand Museum & Archives,"8 Echo Street, Cayuga, Ontario",42.9535523,-79.8583186,"8 Echo Street N0a 1e0, Cayuga, Haldimand, Ontario Canada",T247,4.0,"['Speciality Museums', 'Speciality Museums']",https://www.tripadvisor.ca/Attraction_Review-g2044824-d4242726-Reviews-Haldimand_Museum_Archives-Cayuga_Haldimand_Ontario.html
248,486,Edinburgh Square Heritage and Cultural Centre,"80 Caithness St, Caledonia, Ontario",43.0744084,-79.9546576,"80 Caithness St E, Caledonia, Haldimand, Ontario N3W 1B7 Canada",T248,3.0,"['History Museums', 'History Museums']",https://www.tripadvisor.ca/Attraction_Review-g676142-d4504637-Reviews-Edinburgh_Square_Heritage_and_Cultural_Centre-Caledonia_Haldimand_Ontario.html
249,512,Dundurn Castle,"610 York Boulevard, Hamilton, Ontario",43.2692243,-79.885578,"610 York Boulevard, Hamilton, Ontario L8R 3H1 Canada",T249,4.5,"['Historic Sites', 'Castles', 'History Museums', 'Historic Sites', 'Castles', 'History Museums']",https://www.tripadvisor.ca/Attraction_Review-g154990-d293166-Reviews-Dundurn_Castle-Hamilton_Ontario.html
250,513,HMCS Haida National Historic Site,"658 Catharine Street, Hamilton, Ontario",43.2745449,-79.8567022,"658 Catharine Street North Pier 9, Hamilton, Ontario L8L 8B4 Canada",T250,4.6,"['Military Museums', 'Historic Sites', 'Ships', 'Military Museums', 'Historic Sites', 'Ships']",https://www.tripadvisor.ca/Attraction_Review-g154990-d607747-Reviews-HMCS_Haida_National_Historic_Site-Hamilton_Ontario.html
251,514,Bayfront Park,"200 Harbour Front, Hamilton, Ontario",43.2697932,-79.8693865,"200 Harbour Front Drive Bay at Strachan, Hamilton, Ontario L8L 1C8 Canada",T251,4.5,"['Parks', 'Parks']",https://www.tripadvisor.ca/Attraction_Review-g154990-d4481183-Reviews-Bayfront_Park-Hamilton_Ontario.html
252,515,Gage Park,"Gage Avenue South, Hamilton, Ontario",43.2398115,-79.8320836,"Gage Avenue South and Main Street East, Hamilton, Ontario L8M 1N6 Canada",T252,4.4,"['Parks', 'Parks']",https://www.tripadvisor.ca/Attraction_Review-g154990-d2235290-Reviews-Gage_Park-Hamilton_Ontario.html
253,521,Christie Lake Conservation Area,"1000 Highway 5, Dundas, Ontario",45.4704782,-74.6789343,"1000 Highway 5 West RR 2, Dundas, Hamilton, Ontario L9H 5E2 Canada",T253,4.1,"['Nature & Wildlife Areas', 'Nature & Wildlife Areas']",https://www.tripadvisor.ca/Attraction_Review-g2645488-d4287959-Reviews-Christie_Lake_Conservation_Area-Dundas_Hamilton_Ontario.html
254,524,Ridge Road Estate Winery,"1205 Ridge Rd, Stoney Creek, Ontario",43.2113564,-79.7428939,"1205 Ridge Rd, Stoney Creek, Hamilton, Ontario L8J 2X5 Canada",T254,4.8,"['Wineries & Vineyards', 'Wineries & Vineyards']",https://www.tripadvisor.ca/Attraction_Review-g3404947-d8519460-Reviews-Ridge_Road_Estate_Winery-Stoney_Creek_Hamilton_Ontario.html
255,525,Sherman Falls,"Lion's Club Road, Hamilton, Ontario",43.2388321,-79.9794666,"Lion's Club Road, Hamilton, Ontario Canada",T255,4.5,"['Hiking Trails', 'Hiking Trails']",https://www.tripadvisor.ca/Attraction_Review-g154990-d10333327-Reviews-Sherman_Falls-Hamilton_Ontario.html
256,526,Westfield Heritage Village,"1049 Kirkwall Road, Hamilton, Ontario",43.3198088,-80.1428933,"1049 Kirkwall Road Rockton, Hamilton, Ontario L0R 1X0 Canada",T256,4.7,"['Speciality Museums', 'Points of Interest & Landmarks', 'History Museums', 'Speciality Museums', 'Points of Interest & Landmarks', 'History Museums']",https://www.tripadvisor.ca/Attraction_Review-g154990-d2642580-Reviews-Westfield_Heritage_Village-Hamilton_Ontario.html
257,528,Dyment's Farm,"416 Fallsview Rd, Dundas, Ontario",43.2823717,-79.9496148,"416 Fallsview Rd E R.r. #2, Dundas, Hamilton, Ontario L9H 5E2 Canada",T257,4.0,"['Farms', 'Farms']",https://www.tripadvisor.ca/Attraction_Review-g2645488-d1568544-Reviews-Dyment_s_Farm-Dundas_Hamilton_Ontario.html
258,529,Dundas Valley Conservation Area,"650 Governors Rd, Hamilton, Ontario",43.2455279,-79.99593726156508,"650 Governors Rd, Hamilton, Ontario L9H 5E3 Canada",T258,4.5,"['Nature & Wildlife Areas', 'Valleys', 'Nature & Wildlife Areas', 'Valleys']",https://www.tripadvisor.ca/Attraction_Review-g154990-d4060380-Reviews-Dundas_Valley_Conservation_Area-Hamilton_Ontario.html
259,530,Hamilton Museum of Steam & Technology,"900 Woodward Ave, Hamilton, Ontario",43.2566569,-79.7721898,"900 Woodward Ave, Hamilton, Ontario L8H 7N2 Canada",T259,4.4,"['History Museums', 'History Museums']",https://www.tripadvisor.ca/Attraction_Review-g154990-d310866-Reviews-Hamilton_Museum_of_Steam_Technology-Hamilton_Ontario.html
260,531,Carnegie Gallery,"10 King St, Dundas, Ontario",45.10276918167751,-75.22876981607358,"10 King St W, Dundas, Hamilton, Ontario L9H 1T7 Canada",T260,4.4,"['Art Galleries', 'Art Galleries']",https://www.tripadvisor.ca/Attraction_Review-g2645488-d4273119-Reviews-Carnegie_Gallery-Dundas_Hamilton_Ontario.html
261,532,Leaning Post Wines,"1491 Hwy 8, Stoney Creek, Ontario",43.2293448,-79.7705193,"1491 Hwy 8, Stoney Creek, Hamilton, Ontario L8E 5K9 Canada",T261,4.8,"['Wineries & Vineyards', 'Wineries & Vineyards']",https://www.tripadvisor.ca/Attraction_Review-g3404947-d8009750-Reviews-Leaning_Post_Wines-Stoney_Creek_Hamilton_Ontario.html
262,533,Albion Falls,"885 Mountain Brow, Hamilton, Ontario",43.2332617,-79.8274196,"885 Mountain Brow Blvd, Hamilton, Ontario L8W 1R6 Canada",T262,4.1,"['Waterfalls', 'Waterfalls']",https://www.tripadvisor.ca/Attraction_Review-g154990-d3999694-Reviews-Albion_Falls-Hamilton_Ontario.html
263,534,Art Gallery of Hamilton,"123 King St, Hamilton, Ontario",43.2247098,-79.7941007,"123 King St W, Hamilton, Ontario L8P 4S8 Canada",T263,4.5,"['Art Museums', 'Art Museums']",https://www.tripadvisor.ca/Attraction_Review-g154990-d615173-Reviews-Art_Gallery_of_Hamilton-Hamilton_Ontario.html
264,536,Tim Hortons Field,"64 Melrose Ave, Hamilton, Ontario",43.2523649,-79.8311708,"64 Melrose Ave N, Hamilton, Ontario L8L 0C3 Canada",T264,3.9,"['Arenas & Stadiums', 'Arenas & Stadiums']",https://www.tripadvisor.ca/Attraction_Review-g154990-d4059538-Reviews-Tim_Hortons_Field-Hamilton_Ontario.html
265,537,Bennett's Apples & Cider,"944 Garner Rd, Ancaster, Ontario",43.208363,-79.9689328,"944 Garner Rd E, Ancaster, Hamilton, Ontario L9G 3K9 Canada",T265,4.7,"['Farmers Markets', 'Farmers Markets']",https://www.tripadvisor.ca/Attraction_Review-g499248-d12498741-Reviews-Bennett_s_Apples_Cider-Ancaster_Hamilton_Ontario.html
266,538,Dundas Driving Park,"71 Cross Street, Dundas, Ontario",43.2698936,-79.9528447,"71 Cross Street, Dundas, Hamilton, Ontario L9H 2R5 Canada",T266,4.7,"['Parks', 'Parks']",https://www.tripadvisor.ca/Attraction_Review-g2645488-d13123479-Reviews-Dundas_Driving_Park-Dundas_Hamilton_Ontario.html
267,539,Frootogo Orchards,"573 Parkside Dr, Waterdown, Ontario",43.3304931,-79.9134274,"573 Parkside Dr, Waterdown, Hamilton, Ontario L8B 0G7 Canada",T267,3.9,"['Farms', 'Farms']",https://www.tripadvisor.ca/Attraction_Review-g3205099-d2324504-Reviews-Frootogo_Orchards-Waterdown_Hamilton_Ontario.html
268,540,Waterdown Memorial Park,"Waterdown ON 1, Waterdown, Ontario",43.3337449,-79.89226621216241,"Waterdown ON 1 Hamilton St S Near Parkside Dr junction, Waterdown, Hamilton, Ontario L8B 1A6 Canada",T268,4.2,"['Parks', 'Playgrounds', 'Parks', 'Playgrounds']",https://www.tripadvisor.ca/Attraction_Review-g3205099-d10606199-Reviews-Waterdown_Memorial_Park-Waterdown_Hamilton_Ontario.html
269,541,Pier 4 Park,"64 Leander Dr, Hamilton, Ontario",43.2735663,-79.8648936,"64 Leander Dr, Hamilton, Ontario L8L 1N6 Canada",T269,4.5,"['Parks', 'Parks']",https://www.tripadvisor.ca/Attraction_Review-g154990-d3404974-Reviews-Pier_4_Park-Hamilton_Ontario.html
270,542,First Ontario Centre,"101 York Blvd, Hamilton, Ontario",43.259094149999996,-79.87219532097953,"101 York Blvd, Hamilton, Ontario L8R 3L4 Canada",T270,3.9,"['Arenas & Stadiums', 'Arenas & Stadiums']",https://www.tripadvisor.ca/Attraction_Review-g154990-d3350393-Reviews-First_Ontario_Centre-Hamilton_Ontario.html
271,543,Dundas Museum & Archives,"139 Park St, Dundas, Ontario",45.0720566,-74.6808111,"139 Park St W, Dundas, Hamilton, Ontario L9H 1X8 Canada",T271,4.8,"['Speciality Museums', 'Speciality Museums']",https://www.tripadvisor.ca/Attraction_Review-g2645488-d4273121-Reviews-Dundas_Museum_Archives-Dundas_Hamilton_Ontario.html
272,546,Collective Arts Brewing,"207 Burlington St, Hamilton, Ontario",43.27099313706745,-79.8535177347614,"207 Burlington St E, Hamilton, Ontario L8L 4H2 Canada",T272,4.6,"['Breweries', 'Breweries']",https://www.tripadvisor.ca/Attraction_Review-g154990-d10341672-Reviews-Collective_Arts_Brewing-Hamilton_Ontario.html
273,550,Lime Ridge Mall,"Limeridge Mall 999, Hamilton, Ontario",43.21761745,-79.86149243312596,"Limeridge Mall 999 Upper Wentworth St L9A 4X5, Hamilton, Ontario L9A 4X5 Canada",T273,4.1,"['Shopping Malls', 'Shopping Malls']",https://www.tripadvisor.ca/Attraction_Review-g154990-d4192108-Reviews-Lime_Ridge_Mall-Hamilton_Ontario.html
274,554,Picture Perfect Cake & Art,"369 King St, Dundas, Ontario",45.1053764,-75.2302025,"369 King St W, Dundas, Hamilton, Ontario L9H 1W9 Canada",T274,5.0,"['Art Galleries', 'Art Galleries']",https://www.tripadvisor.ca/Attraction_Review-g2645488-d17396899-Reviews-Picture_Perfect_Cake_Art-Dundas_Hamilton_Ontario.html
275,555,Urquhart Butterfly Garden,"128 King St, Dundas, Ontario",45.1053764,-75.2302025,"128 King St E, Dundas, Hamilton, Ontario Canada",T275,3.8,"['Gardens', 'Gardens']",https://www.tripadvisor.ca/Attraction_Review-g2645488-d8521569-Reviews-Urquhart_Butterfly_Garden-Dundas_Hamilton_Ontario.html
276,556,Cathedral Basilica of Christ the King,"714 King St, Hamilton, Ontario",43.2247098,-79.7941007,"714 King St W, Hamilton, Ontario L8P 1C7 Canada",T276,4.7,"['Sacred & Religious Sites', 'Churches & Cathedrals', 'Sacred & Religious Sites', 'Churches & Cathedrals']",https://www.tripadvisor.ca/Attraction_Review-g154990-d615174-Reviews-Cathedral_Basilica_of_Christ_the_King-Hamilton_Ontario.html
277,558,Chedoke Falls,"Scenic Drive &, Hamilton, Ontario",43.2433659,-79.9325338,"Scenic Drive & Denlow Avenue, Hamilton, Ontario Canada",T277,3.8,"['Waterfalls', 'Waterfalls']",https://www.tripadvisor.ca/Attraction_Review-g154990-d7155407-Reviews-Chedoke_Falls-Hamilton_Ontario.html
278,560,Erland Lee Museum,"522 Ridge Rd, Stoney Creek, Ontario",43.2076634,-79.7247641,"522 Ridge Rd Intersection of Ridge Rd. and Dewitt Rd., Stoney Creek, Hamilton, Ontario L8J 2Y6 Canada",T278,4.5,"['Speciality Museums', 'Speciality Museums']",https://www.tripadvisor.ca/Attraction_Review-g3404947-d4273132-Reviews-Erland_Lee_Museum-Stoney_Creek_Hamilton_Ontario.html
279,561,Hamilton Farmer's Market,"35 York Blvd, Hamilton, Ontario",43.2589792,-79.869926,"35 York Blvd, Hamilton, Ontario L8R 3K7 Canada",T279,4.1,"['Flea & Street Markets', 'Flea & Street Markets']",https://www.tripadvisor.ca/Attraction_Review-g154990-d2534146-Reviews-Hamilton_Farmer_s_Market-Hamilton_Ontario.html
280,562,Grain & Grit Beer Co.,"11 Ewen Rd, Hamilton, Ontario",43.257211,-79.9319579,"11 Ewen Rd, Hamilton, Ontario L8S 3C3 Canada",T280,4.8,"['Breweries', 'Breweries']",https://www.tripadvisor.ca/Attraction_Review-g154990-d13109046-Reviews-Grain_Grit_Beer_Co-Hamilton_Ontario.html
281,563,Whitehern Historic House and Garden,"41 Jackson St, Hamilton, Ontario",43.2547838,-79.8717875,"41 Jackson St W, Hamilton, Ontario L8P 1L3 Canada",T281,4.6,"['Historic Sites', 'Historic Sites']",https://www.tripadvisor.ca/Attraction_Review-g154990-d2642563-Reviews-Whitehern_Historic_House_and_Garden-Hamilton_Ontario.html
282,564,MERIT Brewing Co.,"107 James St, Hamilton, Ontario",43.2694572,-79.9690244,"107 James St N, Hamilton, Ontario L8R 2K6 Canada",T282,4.1,"['Breweries', 'Breweries']",https://www.tripadvisor.ca/Attraction_Review-g154990-d13109075-Reviews-MERIT_Brewing_Co-Hamilton_Ontario.html
283,566,Billy Green Falls,"Upper Centennial Parkway, Stoney Creek, Ontario",43.2055387,-79.7645714,"Upper Centennial Parkway, Stoney Creek, Hamilton, Ontario L8J 1X5 Canada",T283,4.1,"['Waterfalls', 'Waterfalls']",https://www.tripadvisor.ca/Attraction_Review-g3404947-d7155145-Reviews-Billy_Green_Falls-Stoney_Creek_Hamilton_Ontario.html
284,567,Great Falls,"Mill Street South, Waterdown, Ontario",43.3331084,-79.8899576,"Mill Street South, Waterdown, Hamilton, Ontario L7R 3X5 Canada",T284,4.0,"['Nature & Wildlife Areas', 'Waterfalls', 'Nature & Wildlife Areas', 'Waterfalls']",https://www.tripadvisor.ca/Attraction_Review-g3205099-d7983009-Reviews-Great_Falls-Waterdown_Hamilton_Ontario.html
285,568,Theatre Aquarius,"190 King William, Hamilton, Ontario",43.255379,-79.8614068,"190 King William St, Hamilton, Ontario L8R 1A8 Canada",T285,4.6,"['Theatres', 'Theatres']",https://www.tripadvisor.ca/Attraction_Review-g154990-d2311645-Reviews-Theatre_Aquarius-Hamilton_Ontario.html
286,570,Little Rays Nature Centre,"869 Barton St, Hamilton, Ontario",43.2299459,-79.7297292,"869 Barton St E, Hamilton, Ontario L8L 3B4 Canada",T286,4.2,"['Zoos', 'Zoos']",https://www.tripadvisor.ca/Attraction_Review-g154990-d6209491-Reviews-Little_Rays_Nature_Centre-Hamilton_Ontario.html
287,571,Hamilton Antique Mall,"233 Ottawa St, Hamilton, Ontario",43.2488908,-79.8173567,"233 Ottawa St N, Hamilton, Ontario L8H 3Z4 Canada",T287,4.5,"['Antique Stores', 'Antique Stores']",https://www.tripadvisor.ca/Attraction_Review-g154990-d12964802-Reviews-Hamilton_Antique_Mall-Hamilton_Ontario.html
288,573,Fairweather Brewing Co.,"5 Ofield Rd, Hamilton, Ontario",43.2553722,-79.9316897,"5 Ofield Rd Unit #1, Hamilton, Ontario L8S 2M4 Canada",T288,4.8,"['Breweries', 'Breweries']",https://www.tripadvisor.ca/Attraction_Review-g154990-d13109025-Reviews-Fairweather_Brewing_Co-Hamilton_Ontario.html
289,575,True North Gallery | The Music Gallery of Fine Art,"23 Griffin Street, Waterdown, Ontario",43.3330697,-79.8910935,"23 Griffin Street, Waterdown, Hamilton, Ontario L0R 2H0 Canada",T289,4.8,"['Art Galleries', 'Art Galleries']",https://www.tripadvisor.ca/Attraction_Review-g3205099-d12539282-Reviews-True_North_Gallery_The_Music_Gallery_of_Fine_Art-Waterdown_Hamilton_Ontario.html
290,576,Hamilton Brantford Rail Trail,"Jerseyville Road West, Hamilton, Ontario",43.1992434,-80.1113089,"Jerseyville Road West, Hamilton, Ontario Canada",T290,4.9,"['Hiking Trails', 'Hiking Trails']",https://www.tripadvisor.ca/Attraction_Review-g154990-d6224743-Reviews-Hamilton_Brantford_Rail_Trail-Hamilton_Ontario.html
291,577,Freelton Antique Mall,"248 Freelton Rd, Hamilton, Ontario",43.4046328,-80.0450832,"248 Freelton Rd Freelton, Hamilton, Ontario L8B 0Z5 Canada",T291,4.1,"['Antique Stores', 'Antique Stores']",https://www.tripadvisor.ca/Attraction_Review-g154990-d5079443-Reviews-Freelton_Antique_Mall-Hamilton_Ontario.html
292,579,Tim Horton's Museum,"65 Ottawa St, Hamilton, Ontario",43.2446133,-79.8191866,"65 Ottawa St N Dunsmure Rd, Hamilton, Ontario L8H 3Y9 Canada",T292,3.9,"['Speciality Museums', 'Speciality Museums']",https://www.tripadvisor.ca/Attraction_Review-g154990-d10350504-Reviews-Tim_Horton_s_Museum-Hamilton_Ontario.html
293,580,Sam Lawrence Park,"255 Concession Street, Hamilton, Ontario",43.2428382,-79.8594972,"255 Concession Street, Hamilton, Ontario L9A 1B2 Canada",T293,4.5,"['Nature & Wildlife Areas', 'Lookouts', 'Parks', 'Nature & Wildlife Areas', 'Lookouts', 'Parks']",https://www.tripadvisor.ca/Attraction_Review-g154990-d13123234-Reviews-Sam_Lawrence_Park-Hamilton_Ontario.html
294,582,Puddicombe Estate Farms & Winery,"1468 8 Highway, Winona, Ontario",43.20584476815012,-79.62790351797138,"1468 8 Highway, Winona, Hamilton, Ontario L8E 5K9 Canada",T294,3.1,"['Wineries & Vineyards', 'Wineries & Vineyards']",https://www.tripadvisor.ca/Attraction_Review-g8652061-d1828364-Reviews-Puddicombe_Estate_Farms_Winery-Winona_Hamilton_Ontario.html
295,584,Hermitage Falls,"Dundas Valley Conservation, Ancaster, Ontario",43.245065,-79.96533767819105,"Dundas Valley Conservation Area, Ancaster, Hamilton, Ontario Canada",T295,4.5,"['Waterfalls', 'Waterfalls']",https://www.tripadvisor.ca/Attraction_Review-g499248-d6637041-Reviews-Hermitage_Falls-Ancaster_Hamilton_Ontario.html
296,585,Ancaster Public Library,"300 Wilson St, Ancaster, Ontario",43.204823,-79.9988429,"300 Wilson St E, Ancaster, Hamilton, Ontario L9G 2B9 Canada",T296,4.8,"['Libraries', 'Libraries']",https://www.tripadvisor.ca/Attraction_Review-g499248-d11698274-Reviews-Ancaster_Public_Library-Ancaster_Hamilton_Ontario.html
297,586,Parkside Farms,"519 Parkside Dr, Waterdown, Ontario",43.3304931,-79.9134274,"519 Parkside Dr, Waterdown, Hamilton, Ontario L8B 0G7 Canada",T297,4.0,"['Farms', 'Farms']",https://www.tripadvisor.ca/Attraction_Review-g3205099-d12498752-Reviews-Parkside_Farms-Waterdown_Hamilton_Ontario.html
298,589,Buttermilk Falls,"Mountain Brow Boulevard, Hamilton, Ontario",43.2302369,-79.8223574,"Mountain Brow Boulevard & Limeridge Road East, Hamilton, Ontario Canada",T298,4.4,"['Waterfalls', 'Waterfalls']",https://www.tripadvisor.ca/Attraction_Review-g154990-d7154859-Reviews-Buttermilk_Falls-Hamilton_Ontario.html
299,590,Hamilton City Hall,"71 Main St, Hamilton, Ontario",43.26369072515835,-79.95207477553294,"71 Main St W L8P 4Y5, Hamilton, Ontario L8P 4Y5 Canada",T299,4.3,"['Points of Interest & Landmarks', 'Points of Interest & Landmarks']",https://www.tripadvisor.ca/Attraction_Review-g154990-d4242714-Reviews-Hamilton_City_Hall-Hamilton_Ontario.html
300,591,The Zoetic,"526 Concession St, Hamilton, Ontario",43.2412419,-79.853763,"526 Concession St, Hamilton, Ontario L8V 1A6 Canada",T300,4.8,"['Theatres', 'Theatres']",https://www.tripadvisor.ca/Attraction_Review-g154990-d5976289-Reviews-The_Zoetic-Hamilton_Ontario.html
301,594,The Staircase Theatre,"27 Dundurn St, Hamilton, Ontario",43.263281,-79.8877625059491,"27 Dundurn St N, Hamilton, Ontario L8R 3C9 Canada",T301,4.5,"['Theatres', 'Theatres']",https://www.tripadvisor.ca/Attraction_Review-g154990-d6936809-Reviews-The_Staircase_Theatre-Hamilton_Ontario.html
302,596,Hamilton Cemetery,"777 York Blvd, Hamilton, Ontario",43.269304,-79.886011,"777 York Blvd L8R 2A4, Hamilton, Ontario L8R 2A4 Canada",T302,4.2,"['Cemeteries', 'Cemeteries']",https://www.tripadvisor.ca/Attraction_Review-g154990-d4427596-Reviews-Hamilton_Cemetery-Hamilton_Ontario.html
303,597,31 Service Battalion Museum,"650 Catherine Street, Building 1:, Ontario",44.433382578947366,-81.38868284210527,"650 Catherine Street North 2nd Floor, Building 1:, Hamilton, Ontario L8L 4V7 Canada",T303,4.4,"['Military Museums', 'Military Museums']",https://www.tripadvisor.ca/Attraction_Review-g154990-d11707868-Reviews-31_Service_Battalion_Museum-Hamilton_Ontario.html
304,598,The Hamilton Toy Museum,"1231 Main St, Hamilton, Ontario",43.2621808,-79.9514258,"1231 Main St E, Hamilton, Ontario L8K 1A5 Canada",T304,5.0,"[""Children's Museums"", ""Children's Museums""]",https://www.tripadvisor.ca/Attraction_Review-g154990-d8466108-Reviews-The_Hamilton_Toy_Museum-Hamilton_Ontario.html
305,599,Gulliver's Lake,"792 Safari Road, Hamilton, Ontario",43.3612259,-80.0271633,"792 Safari Road, Hamilton, Ontario L0R 1V0 Canada",T305,1.6,"['Bodies of Water', 'Bodies of Water']",https://www.tripadvisor.ca/Attraction_Review-g154990-d10680418-Reviews-Gulliver_s_Lake-Hamilton_Ontario.html
306,600,Hamilton Military Museum,"610 York Blvd, Hamilton, Ontario",43.2692243,-79.885578,"610 York Blvd, Hamilton, Ontario L8H 3R1 Canada",T306,4.0,"['Military Museums', 'Military Museums']",https://www.tripadvisor.ca/Attraction_Review-g154990-d3296918-Reviews-Hamilton_Military_Museum-Hamilton_Ontario.html
