,uncleaned_index,item_name,item_address,lat,lon,index,review_score,categories,url
0,0,Barrie Centennial Park,"65 Lakeshore Drive, Barrie, Ontario",44.381115846023285,-79.69036375746188,T0,4.3,"['Parks', 'Parks']",https://www.tripadvisor.ca/Attraction_Review-g154980-d3222860-Reviews-Barrie_Centennial_Park-Barrie_Ontario.html
1,1,Flying Monkeys Craft Brewery,"107 Dunlop St, Barrie, Ontario",44.3795395,-79.7113748,T1,4.4,"['Breweries', 'Breweries']",https://www.tripadvisor.ca/Attraction_Review-g154980-d3350465-Reviews-Flying_Monkeys_Craft_Brewery-Barrie_Ontario.html
2,2,Sunnidale Park Arboretum,"Sunnidale Road &, Barrie, Ontario",44.4012731,-79.7245568,T2,4.6,"['Parks', 'Parks']",https://www.tripadvisor.ca/Attraction_Review-g154980-d6674284-Reviews-Sunnidale_Park_Arboretum-Barrie_Ontario.html
3,3,Spirit Catcher Sculpture,"24 Maple Ave, Barrie, Ontario",44.388147576923075,-79.69083767692308,T3,4.3,"['Points of Interest & Landmarks', 'Points of Interest & Landmarks']",https://www.tripadvisor.ca/Attraction_Review-g154980-d4504641-Reviews-Spirit_Catcher_Sculpture-Barrie_Ontario.html
4,5,Ardagh Bluffs,"Ardagh Road &, Barrie, Ontario",44.3563883,-79.7084034,T4,4.4,"['Nature & Wildlife Areas', 'Nature & Wildlife Areas']",https://www.tripadvisor.ca/Attraction_Review-g154980-d3681269-Reviews-Ardagh_Bluffs-Barrie_Ontario.html
5,6,Splashon Wibit Water Park,"55 Lakeshore Drive, Barrie, Ontario",44.385379650000004,-79.69038405,T5,5.0,"['Water Parks', 'Water Parks']",https://www.tripadvisor.ca/Attraction_Review-g154980-d14990436-Reviews-Splashon_Wibit_Water_Park-Barrie_Ontario.html
6,7,Chappell Farms,"617 Penetanguishene Rd, Barrie, Ontario",44.4004421,-79.6492199,T6,3.8,"['Farms', 'Farms']",https://www.tripadvisor.ca/Attraction_Review-g154980-d2254466-Reviews-Chappell_Farms-Barrie_Ontario.html
7,8,Studio 737,"505 Bryne Dr, Barrie, Ontario",44.33174197395418,-79.689097535866,T7,4.9,"['Art Galleries', 'Art Galleries']",https://www.tripadvisor.ca/Attraction_Review-g154980-d16845492-Reviews-Studio_737-Barrie_Ontario.html
8,9,Barrie Antiques Centre,"272 Innisfil St, Barrie, Ontario",44.372639,-79.6940738,T8,4.7,"['Antique Stores', 'Antique Stores']",https://www.tripadvisor.ca/Attraction_Review-g154980-d6211346-Reviews-Barrie_Antiques_Centre-Barrie_Ontario.html
9,10,Ontario Travel Information Centre - Barrie,"21 Mapleview Dr, Barrie, Ontario",44.3400782,-79.6861197,T9,4.6,"['Visitor Centres', 'Visitor Centres']",https://www.tripadvisor.ca/Attraction_Review-g154980-d8569487-Reviews-Ontario_Travel_Information_Centre_Barrie-Barrie_Ontario.html
10,12,Johnson's Beach,"2 Johnson Street, Barrie, Ontario",44.3933953,-79.6573918,T10,3.9,"['Beaches', 'Beaches']",https://www.tripadvisor.ca/Attraction_Review-g154980-d14048660-Reviews-Johnson_s_Beach-Barrie_Ontario.html
11,13,New York Fries - Georgian Mall,"509 Bayfield Street, Barrie, Ontario",44.413152350000004,-79.70810844639183,T11,4.0,"['Shopping Malls', 'Shopping Malls']",https://www.tripadvisor.ca/Attraction_Review-g154980-d3681549-Reviews-New_York_Fries_Georgian_Mall-Barrie_Ontario.html
12,14,Maclaren Art Centre,"37 Mulcaster St, Barrie, Ontario",44.3902932,-79.6853478,T12,4.2,"['Art Galleries', 'Art Galleries']",https://www.tripadvisor.ca/Attraction_Review-g154980-d3440910-Reviews-Maclaren_Art_Centre-Barrie_Ontario.html
13,15,Minet's Point Park,"10 Lismer Boulevard, Barrie, Ontario",44.3758743,-79.667133525,T13,4.2,"['Parks', 'Parks']",https://www.tripadvisor.ca/Attraction_Review-g154980-d14048708-Reviews-Minet_s_Point_Park-Barrie_Ontario.html
14,16,In Play Inc,"551 Bryne Dr, Barrie, Ontario",44.32844525553221,-79.68841877890807,T14,3.1,"['Playgrounds', 'Playgrounds']",https://www.tripadvisor.ca/Attraction_Review-g154980-d3368350-Reviews-In_Play_Inc-Barrie_Ontario.html
15,17,Barrie Molson Centre,"555 Bayview Dr, Barrie, Ontario",44.337496349999995,-79.6782465144151,T15,3.8,"['Arenas & Stadiums', 'Arenas & Stadiums']",https://www.tripadvisor.ca/Attraction_Review-g154980-d4057995-Reviews-Barrie_Molson_Centre-Barrie_Ontario.html
16,18,Tyndale Park,"45 Tyndale Rd, Barrie, Ontario",44.37396623814309,-79.64608972197315,T16,4.7,"['Parks', 'Parks']",https://www.tripadvisor.ca/Attraction_Review-g154980-d14048711-Reviews-Tyndale_Park-Barrie_Ontario.html
17,19,Heritage Estate Winery & Cidery,"421 Penetanguishene Rd, Barrie, Ontario",44.4004421,-79.6492199,T17,4.3,"['Wineries & Vineyards', 'Wineries & Vineyards']",https://www.tripadvisor.ca/Attraction_Review-g154980-d11864452-Reviews-Heritage_Estate_Winery_Cidery-Barrie_Ontario.html
18,21,Theatre by the Bay,"1 Dunlop St, Barrie, Ontario",44.3795395,-79.7113748,T18,4.3,"['Theatres', 'Theatres']",https://www.tripadvisor.ca/Attraction_Review-g154980-d7224437-Reviews-Theatre_by_the_Bay-Barrie_Ontario.html
19,22,Smart Moves Play Place,"565 Bryne Dr, Barrie, Ontario",44.3271092,-79.6878419,T19,4.4,"['Playgrounds', 'Playgrounds']",https://www.tripadvisor.ca/Attraction_Review-g154980-d6665629-Reviews-Smart_Moves_Play_Place-Barrie_Ontario.html
20,23,Grey & Simcoe Foresters Regimental Museum,"36 Mulcaster St, Barrie, Ontario",44.38999215,-79.6857741750766,T20,4.7,"['Military Museums', 'Military Museums']",https://www.tripadvisor.ca/Attraction_Review-g154980-d7197473-Reviews-Grey_Simcoe_Foresters_Regimental_Museum-Barrie_Ontario.html
21,24,Barnstormer Brewing & Distilling Co.,"3-384 Yonge St, Barrie, Ontario",44.3568011,-79.6474395,T21,4.8,"['Breweries', 'Breweries']",https://www.tripadvisor.ca/Attraction_Review-g154980-d13108765-Reviews-Barnstormer_Brewing_Distilling_Co-Barrie_Ontario.html
22,26,Five Points Theatre,"1 Dunlop St, Barrie, Ontario",44.3795395,-79.7113748,T22,3.4,"['Theatres', 'Theatres']",https://www.tripadvisor.ca/Attraction_Review-g154980-d3853705-Reviews-Five_Points_Theatre-Barrie_Ontario.html
23,28,Park Place,"100 Mapleview Drive, Barrie, Ontario",44.3400782,-79.6861197,T23,4.0,"['Shopping Malls', 'Shopping Malls']",https://www.tripadvisor.ca/Attraction_Review-g154980-d12337906-Reviews-Park_Place-Barrie_Ontario.html
24,29,Bayfield Mall,"Bayfield Mall 320, Barrie, Ontario",44.400566850000004,-79.70345630559979,T24,2.1,"['Shopping Malls', 'Shopping Malls']",https://www.tripadvisor.ca/Attraction_Review-g154980-d4058019-Reviews-Bayfield_Mall-Barrie_Ontario.html
25,31,The Edge Gallery,"32 Dunlop St, Barrie, Ontario",44.3795395,-79.7113748,T25,4.0,"['Art Galleries', 'Art Galleries']",https://www.tripadvisor.ca/Attraction_Review-g154980-d8029049-Reviews-The_Edge_Gallery-Barrie_Ontario.html
26,33,Tyendinaga Cavern and Caves,"2623 Harmony Road, Belleville, Ontario",44.280811461727666,-77.27821014604461,T26,4.3,"['Caverns & Caves', 'Caverns & Caves']",https://www.tripadvisor.ca/Attraction_Review-g154981-d6226961-Reviews-Tyendinaga_Cavern_and_Caves-Belleville_Ontario.html
27,37,Frink Centre Conservation Area,"381 Thrasher Rd, Belleville, Ontario",44.27629366658738,-77.34475286297305,T27,4.7,"['Nature & Wildlife Areas', 'Nature & Wildlife Areas']",https://www.tripadvisor.ca/Attraction_Review-g154981-d6592910-Reviews-Frink_Centre_Conservation_Area-Belleville_Ontario.html
28,39,Shorelines Casino Belleville,"380 Bell Blvd, Belleville, Ontario",44.1832302,-77.4209543791406,T28,3.4,"['Casinos', 'Casinos']",https://www.tripadvisor.ca/Attraction_Review-g154981-d12860015-Reviews-Shorelines_Casino_Belleville-Belleville_Ontario.html
29,40,Riverside Park,"373 Moira St, Belleville, Ontario",44.1774112,-77.3800211,T29,4.7,"['Parks', 'Parks']",https://www.tripadvisor.ca/Attraction_Review-g154981-d13306973-Reviews-Riverside_Park-Belleville_Ontario.html
30,41,Quinte Mall,"Quinte Mall 390, Belleville, Ontario",44.18909515,-77.40146619827145,T30,3.6,"['Shopping Malls', 'Shopping Malls']",https://www.tripadvisor.ca/Attraction_Review-g154981-d10390427-Reviews-Quinte_Mall-Belleville_Ontario.html
31,42,Belleville City Hall,"169 Front St, Belleville, Ontario",44.1627513,-77.38349930000001,T31,4.3,"['Points of Interest & Landmarks', 'Points of Interest & Landmarks']",https://www.tripadvisor.ca/Attraction_Review-g154981-d4558053-Reviews-Belleville_City_Hall-Belleville_Ontario.html
32,43,Boretski Gallery,"300 Front St, Belleville, Ontario",44.1663317,-77.3855086,T32,4.9,"['Antique Stores', 'Antique Stores']",https://www.tripadvisor.ca/Attraction_Review-g154981-d2302222-Reviews-Boretski_Gallery-Belleville_Ontario.html
33,44,Church of St. Michael the Archangel,"296 Church St, Belleville, Ontario",44.169361103607386,-77.38359527954411,T33,4.8,"['Points of Interest & Landmarks', 'Points of Interest & Landmarks']",https://www.tripadvisor.ca/Attraction_Review-g154981-d4611582-Reviews-Church_of_St_Michael_the_Archangel-Belleville_Ontario.html
34,45,Quinte Sports & Wellness Centre,"265 Cannifton Rd, Belleville, Ontario",44.1877872,-77.38234437683762,T34,4.5,"['Sports Complexes', 'Sports Complexes']",https://www.tripadvisor.ca/Attraction_Review-g154981-d13129291-Reviews-Quinte_Sports_Wellness_Centre-Belleville_Ontario.html
35,46,Belleville Chamber of Commerce and Visitor Centre,"5 Moira St, Belleville, Ontario",44.1774112,-77.3800211,T35,4.7,"['Visitor Centres', 'Visitor Centres']",https://www.tripadvisor.ca/Attraction_Review-g154981-d13791969-Reviews-Belleville_Chamber_of_Commerce_and_Visitor_Centre-Belleville_Ontario.html
36,48,Quinte Antiques,"521 Dundas St, Belleville, Ontario",44.1446718,-77.4156343,T36,4.2,"['Antique Stores', 'Antique Stores']",https://www.tripadvisor.ca/Attraction_Review-g154981-d4045384-Reviews-Quinte_Antiques-Belleville_Ontario.html
37,49,CAA Arena,"265 Cannifton Rd, Belleville, Ontario",44.1877872,-77.38234437683762,T37,4.0,"['Arenas & Stadiums', 'Arenas & Stadiums']",https://www.tripadvisor.ca/Attraction_Review-g154981-d19625083-Reviews-CAA_Arena-Belleville_Ontario.html
38,50,Tri & Run Sports,"188 Front St, Belleville, Ontario",44.16325318,-77.38405742,T38,5.0,"['Shopping Malls', 'Shopping Malls']",https://www.tripadvisor.ca/Attraction_Review-g154981-d17520628-Reviews-Tri_Run_Sports-Belleville_Ontario.html
39,51,Belleville Art Association Studio & Gallery,"392 Front St, Belleville, Ontario",44.168692070644774,-77.3860753276749,T39,4.0,"['Art Galleries', 'Art Galleries']",https://www.tripadvisor.ca/Attraction_Review-g154981-d12589976-Reviews-Belleville_Art_Association_Studio_Gallery-Belleville_Ontario.html
40,52,The Empire Theatre,"321 Front St, Belleville, Ontario",44.167138398660704,-77.38552764792249,T40,4.6,"['Concerts', 'Theatres', 'Concerts', 'Theatres']",https://www.tripadvisor.ca/Attraction_Review-g154981-d2038101-Reviews-The_Empire_Theatre-Belleville_Ontario.html
41,53,Black Bear Ridge Golf Club,"501 Harmony Rd, Belleville, Ontario",44.23994752552805,-77.39215546415436,T41,4.7,"['Golf Courses', 'Golf Courses']",https://www.tripadvisor.ca/Attraction_Review-g154981-d2277529-Reviews-Black_Bear_Ridge_Golf_Club-Belleville_Ontario.html
42,56,Reiki On Wheels Natural Products & Gifts,"223 Front St, Belleville, Ontario",44.16441428888889,-77.38422647222222,T42,5.0,"['Gift & Speciality Shops', 'Gift & Speciality Shops']",https://www.tripadvisor.ca/Attraction_Review-g154981-d11918051-Reviews-Reiki_On_Wheels_Natural_Products_Gifts-Belleville_Ontario.html
43,57,Donini Chocolates,"335 Bell Blvd, Belleville, Ontario",44.18347875294118,-77.41589557647059,T43,4.2,"['Gift & Speciality Shops', 'Gift & Speciality Shops']",https://www.tripadvisor.ca/Attraction_Review-g154981-d10241980-Reviews-Donini_Chocolates-Belleville_Ontario.html
44,58,Kate's Kitchen,"271 Front St, Belleville, Ontario",44.16570464551214,-77.38485196740325,T44,5.0,"['Gift & Speciality Shops', 'Gift & Speciality Shops']",https://www.tripadvisor.ca/Attraction_Review-g154981-d11913213-Reviews-Kate_s_Kitchen-Belleville_Ontario.html
45,60,Tyendinaga Cavern and Caves,"2623 Harmony Road, Belleville, Ontario",44.280811461727666,-77.27821014604461,T45,4.3,"['Caverns & Caves', 'Caverns & Caves']",https://www.tripadvisor.ca/Attraction_Review-g154981-d6226961-Reviews-Tyendinaga_Cavern_and_Caves-Belleville_Ontario.html
46,64,Frink Centre Conservation Area,"381 Thrasher Rd, Belleville, Ontario",44.27629366658738,-77.34475286297305,T46,4.7,"['Nature & Wildlife Areas', 'Nature & Wildlife Areas']",https://www.tripadvisor.ca/Attraction_Review-g154981-d6592910-Reviews-Frink_Centre_Conservation_Area-Belleville_Ontario.html
47,66,Shorelines Casino Belleville,"380 Bell Blvd, Belleville, Ontario",44.1832302,-77.4209543791406,T47,3.4,"['Casinos', 'Casinos']",https://www.tripadvisor.ca/Attraction_Review-g154981-d12860015-Reviews-Shorelines_Casino_Belleville-Belleville_Ontario.html
48,67,Riverside Park,"373 Moira St, Belleville, Ontario",44.1774112,-77.3800211,T48,4.7,"['Parks', 'Parks']",https://www.tripadvisor.ca/Attraction_Review-g154981-d13306973-Reviews-Riverside_Park-Belleville_Ontario.html
49,68,Quinte Mall,"Quinte Mall 390, Belleville, Ontario",44.18909515,-77.40146619827145,T49,3.6,"['Shopping Malls', 'Shopping Malls']",https://www.tripadvisor.ca/Attraction_Review-g154981-d10390427-Reviews-Quinte_Mall-Belleville_Ontario.html
50,69,Belleville City Hall,"169 Front St, Belleville, Ontario",44.1627513,-77.38349930000001,T50,4.3,"['Points of Interest & Landmarks', 'Points of Interest & Landmarks']",https://www.tripadvisor.ca/Attraction_Review-g154981-d4558053-Reviews-Belleville_City_Hall-Belleville_Ontario.html
51,70,Boretski Gallery,"300 Front St, Belleville, Ontario",44.1663317,-77.3855086,T51,4.9,"['Antique Stores', 'Antique Stores']",https://www.tripadvisor.ca/Attraction_Review-g154981-d2302222-Reviews-Boretski_Gallery-Belleville_Ontario.html
52,71,Church of St. Michael the Archangel,"296 Church St, Belleville, Ontario",44.169361103607386,-77.38359527954411,T52,4.8,"['Points of Interest & Landmarks', 'Points of Interest & Landmarks']",https://www.tripadvisor.ca/Attraction_Review-g154981-d4611582-Reviews-Church_of_St_Michael_the_Archangel-Belleville_Ontario.html
53,72,Quinte Sports & Wellness Centre,"265 Cannifton Rd, Belleville, Ontario",44.1877872,-77.38234437683762,T53,4.5,"['Sports Complexes', 'Sports Complexes']",https://www.tripadvisor.ca/Attraction_Review-g154981-d13129291-Reviews-Quinte_Sports_Wellness_Centre-Belleville_Ontario.html
54,73,Belleville Chamber of Commerce and Visitor Centre,"5 Moira St, Belleville, Ontario",44.1774112,-77.3800211,T54,4.7,"['Visitor Centres', 'Visitor Centres']",https://www.tripadvisor.ca/Attraction_Review-g154981-d13791969-Reviews-Belleville_Chamber_of_Commerce_and_Visitor_Centre-Belleville_Ontario.html
55,75,Quinte Antiques,"521 Dundas St, Belleville, Ontario",44.1446718,-77.4156343,T55,4.2,"['Antique Stores', 'Antique Stores']",https://www.tripadvisor.ca/Attraction_Review-g154981-d4045384-Reviews-Quinte_Antiques-Belleville_Ontario.html
56,76,CAA Arena,"265 Cannifton Rd, Belleville, Ontario",44.1877872,-77.38234437683762,T56,4.0,"['Arenas & Stadiums', 'Arenas & Stadiums']",https://www.tripadvisor.ca/Attraction_Review-g154981-d19625083-Reviews-CAA_Arena-Belleville_Ontario.html
57,77,Tri & Run Sports,"188 Front St, Belleville, Ontario",44.16325318,-77.38405742,T57,5.0,"['Shopping Malls', 'Shopping Malls']",https://www.tripadvisor.ca/Attraction_Review-g154981-d17520628-Reviews-Tri_Run_Sports-Belleville_Ontario.html
58,78,Belleville Art Association Studio & Gallery,"392 Front St, Belleville, Ontario",44.168692070644774,-77.3860753276749,T58,4.0,"['Art Galleries', 'Art Galleries']",https://www.tripadvisor.ca/Attraction_Review-g154981-d12589976-Reviews-Belleville_Art_Association_Studio_Gallery-Belleville_Ontario.html
59,79,The Empire Theatre,"321 Front St, Belleville, Ontario",44.167138398660704,-77.38552764792249,T59,4.6,"['Concerts', 'Theatres', 'Concerts', 'Theatres']",https://www.tripadvisor.ca/Attraction_Review-g154981-d2038101-Reviews-The_Empire_Theatre-Belleville_Ontario.html
60,80,Black Bear Ridge Golf Club,"501 Harmony Rd, Belleville, Ontario",44.23994752552805,-77.39215546415436,T60,4.7,"['Golf Courses', 'Golf Courses']",https://www.tripadvisor.ca/Attraction_Review-g154981-d2277529-Reviews-Black_Bear_Ridge_Golf_Club-Belleville_Ontario.html
61,83,Reiki On Wheels Natural Products & Gifts,"223 Front St, Belleville, Ontario",44.16441428888889,-77.38422647222222,T61,5.0,"['Gift & Speciality Shops', 'Gift & Speciality Shops']",https://www.tripadvisor.ca/Attraction_Review-g154981-d11918051-Reviews-Reiki_On_Wheels_Natural_Products_Gifts-Belleville_Ontario.html
62,84,Donini Chocolates,"335 Bell Blvd, Belleville, Ontario",44.18347875294118,-77.41589557647059,T62,4.2,"['Gift & Speciality Shops', 'Gift & Speciality Shops']",https://www.tripadvisor.ca/Attraction_Review-g154981-d10241980-Reviews-Donini_Chocolates-Belleville_Ontario.html
63,85,Kate's Kitchen,"271 Front St, Belleville, Ontario",44.16570464551214,-77.38485196740325,T63,5.0,"['Gift & Speciality Shops', 'Gift & Speciality Shops']",https://www.tripadvisor.ca/Attraction_Review-g154981-d11913213-Reviews-Kate_s_Kitchen-Belleville_Ontario.html
64,88,Gage Park,"2 Wellington St, Brampton, Ontario",43.6842951,-79.7575472,T64,4.5,"['Parks', 'Parks']",https://www.tripadvisor.ca/Attraction_Review-g154982-d2535350-Reviews-Gage_Park-Brampton_Ontario.html
65,89,Donald M. Gordon Chinguacousy Park,"9050 Bramalea Rd, Brampton, Ontario",43.7258735,-79.72213457657124,T65,4.6,"['Parks', 'Parks']",https://www.tripadvisor.ca/Attraction_Review-g154982-d3427100-Reviews-Donald_M_Gordon_Chinguacousy_Park-Brampton_Ontario.html
66,90,Heart Lake Conservation Area,"10818 Heart Lake, Brampton, Ontario",43.7369623,-79.7819296,T66,4.2,"['Nature & Wildlife Areas', 'Nature & Wildlife Areas']",https://www.tripadvisor.ca/Attraction_Review-g154982-d4060361-Reviews-Heart_Lake_Conservation_Area-Brampton_Ontario.html
67,91,Rose Theatre Brampton,"1 Theatre Lane, Brampton, Ontario",43.687149500000004,-79.76011320098286,T67,4.6,"['Theatres', 'Theatres']",https://www.tripadvisor.ca/Attraction_Review-g154982-d4060172-Reviews-Rose_Theatre_Brampton-Brampton_Ontario.html
68,92,Professor's Lake Recreation Centre,"1660 North Park, Brampton, Ontario",43.6704598,-79.7270605,T68,4.3,"['Bodies of Water', 'Bodies of Water']",https://www.tripadvisor.ca/Attraction_Review-g154982-d7622762-Reviews-Professor_s_Lake_Recreation_Centre-Brampton_Ontario.html
69,93,Eldorado Park,"8520 Creditview Rd, Brampton, Ontario",43.6811064,-79.8160799,T69,4.1,"['Bodies of Water', 'Nature & Wildlife Areas', 'Parks', 'Bodies of Water', 'Nature & Wildlife Areas', 'Parks']",https://www.tripadvisor.ca/Attraction_Review-g154982-d8505186-Reviews-Eldorado_Park-Brampton_Ontario.html
70,94,Peel Art Gallery Museum & Archive (PAMA),"9 Wellington St, Brampton, Ontario",43.6842951,-79.7575472,T70,4.3,"['Art Museums', 'Art Museums']",https://www.tripadvisor.ca/Attraction_Review-g154982-d3675553-Reviews-Peel_Art_Gallery_Museum_Archive_PAMA-Brampton_Ontario.html
71,95,Wet 'n' Wild Toronto,"7855 Finch Ave, Brampton, Ontario",43.733728,-79.634292,T71,2.8,"['Water Parks', 'Water Parks']",https://www.tripadvisor.ca/Attraction_Review-g154982-d186832-Reviews-Wet_n_Wild_Toronto-Brampton_Ontario.html
72,96,The Big'r Apple Farm,"8674 Heritage Rd, Brampton, Ontario",43.6163447,-79.7850606,T72,3.9,"['Farms', 'Farms']",https://www.tripadvisor.ca/Attraction_Review-g154982-d4940997-Reviews-The_Big_r_Apple_Farm-Brampton_Ontario.html
73,98,Pearson Convention Center,"2638 Steeles Ave, Brampton, Ontario",43.661147,-79.7386763,T73,4.3,"['Conference & Convention Centres', 'Conference & Convention Centres']",https://www.tripadvisor.ca/Attraction_Review-g154982-d4060358-Reviews-Pearson_Convention_Center-Brampton_Ontario.html
74,100,CAA Centre,"7575 Kennedy Road, Brampton, Ontario",43.667493,-79.70840033618447,T74,3.7,"['Arenas & Stadiums', 'Arenas & Stadiums']",https://www.tripadvisor.ca/Attraction_Review-g154982-d3669789-Reviews-CAA_Centre-Brampton_Ontario.html
75,101,747 Flea Market,"75 Parkhurst Square, Brampton, Ontario",43.72739589106965,-79.66619540327352,T75,3.1,"['Flea & Street Markets', 'Flea & Street Markets']",https://www.tripadvisor.ca/Attraction_Review-g154982-d5085074-Reviews-747_Flea_Market-Brampton_Ontario.html
76,102,Carl Laidlaw Orchards,"9496 Heritage Rd, Brampton, Ontario",43.6462491,-79.8278536,T76,4.6,"['Farms', 'Farms']",https://www.tripadvisor.ca/Attraction_Review-g154982-d15154157-Reviews-Carl_Laidlaw_Orchards-Brampton_Ontario.html
77,103,Meadowvale Cemetery,"7732 Mavis Rd, Brampton, Ontario",43.6440908,-79.750592,T77,4.4,"['Cemeteries', 'Cemeteries']",https://www.tripadvisor.ca/Attraction_Review-g154982-d3948125-Reviews-Meadowvale_Cemetery-Brampton_Ontario.html
78,104,Garden Square,"12 Main St, Brampton, Ontario",43.6664656,-79.7343925,T78,4.8,"['Parks', 'Parks']",https://www.tripadvisor.ca/Attraction_Review-g154982-d15029586-Reviews-Garden_Square-Brampton_Ontario.html
79,105,Century Gardens Recreation Centre,"340 Vodden St, Brampton, Ontario",43.7084355,-79.75390441666667,T79,4.3,"['Sports Complexes', 'Playgrounds', 'Sports Complexes', 'Playgrounds']",https://www.tripadvisor.ca/Attraction_Review-g154982-d8447475-Reviews-Century_Gardens_Recreation_Centre-Brampton_Ontario.html
80,108,Trinity Common Mall,"210 Great Lakes, Brampton, Ontario",43.73482255882353,-79.76750393529412,T80,3.7,"['Shopping Malls', 'Shopping Malls']",https://www.tripadvisor.ca/Attraction_Review-g154982-d12154641-Reviews-Trinity_Common_Mall-Brampton_Ontario.html
81,109,Orchalaw Farms,"9726 Heritage Rd, Brampton, Ontario",43.652492440581156,-79.83384762504834,T81,3.1,"['Farms', 'Farms']",https://www.tripadvisor.ca/Attraction_Review-g154982-d4942153-Reviews-Orchalaw_Farms-Brampton_Ontario.html
82,110,Brampton City Hall,"2 Wellington St, Brampton, Ontario",43.6842951,-79.7575472,T82,3.7,"['Points of Interest & Landmarks', 'Points of Interest & Landmarks']",https://www.tripadvisor.ca/Attraction_Review-g154982-d4060353-Reviews-Brampton_City_Hall-Brampton_Ontario.html
83,111,Historic Bovaird House,"563 Bovaird Drive, Brampton, Ontario",43.7057066,-79.7868372,T83,4.2,"['Speciality Museums', 'Speciality Museums']",https://www.tripadvisor.ca/Attraction_Review-g154982-d4066620-Reviews-Historic_Bovaird_House-Brampton_Ontario.html
84,113,Jellybeenz Indoor Play & Party Center,"13-10 Bramhurst Ave, Brampton, Ontario",43.7199795,-79.6869737,T84,3.8,"['Playgrounds', 'Playgrounds']",https://www.tripadvisor.ca/Attraction_Review-g154982-d6665585-Reviews-Jellybeenz_Indoor_Play_Party_Center-Brampton_Ontario.html
85,114,The Country Apple Store,"8605 Heritage Rd, Brampton, Ontario",43.6294334,-79.8017981,T85,4.5,"['Farms', 'Farms']",https://www.tripadvisor.ca/Attraction_Review-g154982-d12498767-Reviews-The_Country_Apple_Store-Brampton_Ontario.html
86,115,ISKCON Brampton,"173 Advance Boulevard, Brampton, Ontario",43.6936168,-79.6919671,T86,4.2,"['Sacred & Religious Sites', 'Sacred & Religious Sites']",https://www.tripadvisor.ca/Attraction_Review-g154982-d3334792-Reviews-ISKCON_Brampton-Brampton_Ontario.html
87,116,Indian Line Conservation Area,"7625 Finch Ave, Brampton, Ontario",43.733774,-79.6342808,T87,3.5,"['Nature & Wildlife Areas', 'Nature & Wildlife Areas']",https://www.tripadvisor.ca/Attraction_Review-g154982-d7269523-Reviews-Indian_Line_Conservation_Area-Brampton_Ontario.html
88,117,Lester B. Pearson Theatre,"110-150 Central Park, Brampton, Ontario",43.8391814,-79.7062692,T88,4.7,"['Theatres', 'Theatres']",https://www.tripadvisor.ca/Attraction_Review-g154982-d4928304-Reviews-Lester_B_Pearson_Theatre-Brampton_Ontario.html
89,119,IN5 Experium Golden Temple,"70 Peel Centre, Brampton, Ontario",43.6895367,-79.7514583,T89,3.5,"['Speciality Museums', 'Speciality Museums']",https://www.tripadvisor.ca/Attraction_Review-g154982-d17549275-Reviews-IN5_Experium_Golden_Temple-Brampton_Ontario.html
90,120,New Apostolic Church,"45 Eastbourne Dr, Brampton, Ontario",43.7259066,-79.69946479042093,T90,5.0,"['Sacred & Religious Sites', 'Sacred & Religious Sites']",https://www.tripadvisor.ca/Attraction_Review-g154982-d11771508-Reviews-New_Apostolic_Church-Brampton_Ontario.html
91,121,Jim Archdekin Recreation Centre,"292 Conestoga Dr, Brampton, Ontario",43.7159067,-79.7863073,T91,3.0,"['Sports Complexes', 'Sports Complexes']",https://www.tripadvisor.ca/Attraction_Review-g154982-d17740782-Reviews-Jim_Archdekin_Recreation_Centre-Brampton_Ontario.html
92,123,Wayne Gretzky Sports Centre,"254 North Park, Brantford, Ontario",43.14082645,-80.26315993288691,T92,4.6,"['Sports Complexes', 'Sports Complexes']",https://www.tripadvisor.ca/Attraction_Review-g154983-d4567380-Reviews-Wayne_Gretzky_Sports_Centre-Brantford_Ontario.html
93,124,Bell Homestead,"94 Tutela Heights, Brantford, Ontario",43.1078099,-80.2707667,T93,4.4,"['Historic Sites', 'Historic Sites']",https://www.tripadvisor.ca/Attraction_Review-g154983-d296634-Reviews-Bell_Homestead-Brantford_Ontario.html
94,126,Glenhyrst Art Gallery and Gardens,"20 Ava Rd, Brantford, Ontario",43.1567611,-80.2866689,T94,4.6,"['Gardens', 'Gardens']",https://www.tripadvisor.ca/Attraction_Review-g154983-d2706705-Reviews-Glenhyrst_Art_Gallery_and_Gardens-Brantford_Ontario.html
95,127,Brantwood Farms,"251 Powerline Rd, Brantford, Ontario",43.1926387,-80.24200798304904,T95,4.5,"['Farms', 'Farms']",https://www.tripadvisor.ca/Attraction_Review-g154983-d4266654-Reviews-Brantwood_Farms-Brantford_Ontario.html
96,129,Sanderson Centre for the Performing Arts,"88 Dalhousie St, Brantford, Ontario",43.13952363333333,-80.26447206666667,T96,4.7,"['Theatres', 'Theatres']",https://www.tripadvisor.ca/Attraction_Review-g154983-d3553114-Reviews-Sanderson_Centre_for_the_Performing_Arts-Brantford_Ontario.html
97,130,Canadian Military Heritage Museum,"347 Greenwich St, Brantford, Ontario",43.1315581,-80.2511113,T97,4.9,"['Speciality Museums', 'Speciality Museums']",https://www.tripadvisor.ca/Attraction_Review-g154983-d4269102-Reviews-Canadian_Military_Heritage_Museum-Brantford_Ontario.html
98,131,Al's Shoe Factory,"135 King George, Brantford, Ontario",43.17107371666666,-80.27724561666668,T98,4.2,"['Factory Outlets', 'Factory Outlets']",https://www.tripadvisor.ca/Attraction_Review-g154983-d2536539-Reviews-Al_s_Shoe_Factory-Brantford_Ontario.html
99,132,Woodland Cultural Centre,"184 Mohawk St, Brantford, Ontario",43.127639450000004,-80.240407160264,T99,4.3,"['Art Galleries', 'Points of Interest & Landmarks', 'Art Galleries', 'Points of Interest & Landmarks']",https://www.tripadvisor.ca/Attraction_Review-g154983-d4242713-Reviews-Woodland_Cultural_Centre-Brantford_Ontario.html
100,133,Mohawk Chapel,"301 Mohawk Street, Brantford, Ontario",43.1244365,-80.23482714793113,T100,4.4,"['Points of Interest & Landmarks', 'Points of Interest & Landmarks']",https://www.tripadvisor.ca/Attraction_Review-g154983-d4082943-Reviews-Mohawk_Chapel-Brantford_Ontario.html
101,134,Elements Casino Brantford,"40 Icomm Dr, Brantford, Ontario",43.13646895,-80.26570853385556,T101,3.0,"['Casinos', 'Casinos']",https://www.tripadvisor.ca/Attraction_Review-g154983-d9749554-Reviews-Elements_Casino_Brantford-Brantford_Ontario.html
102,135,Bell City Brewery,"51 Woodyatt Dr, Brantford, Ontario",43.1703967,-80.2366512,T102,4.6,"['Breweries', 'Breweries']",https://www.tripadvisor.ca/Attraction_Review-g154983-d9554454-Reviews-Bell_City_Brewery-Brantford_Ontario.html
103,136,Crossroads Flea Market,"1146 Colborne St, Brantford, Ontario",43.1381423,-80.2686929,T103,3.8,"['Flea & Street Markets', 'Flea & Street Markets']",https://www.tripadvisor.ca/Attraction_Review-g154983-d4266820-Reviews-Crossroads_Flea_Market-Brantford_Ontario.html
104,138,Glenhyrst Art Gallery of Brant,"20 Ava Rd, Brantford, Ontario",43.1567611,-80.2866689,T104,4.4,"['Art Galleries', 'Art Galleries']",https://www.tripadvisor.ca/Attraction_Review-g154983-d2706700-Reviews-Glenhyrst_Art_Gallery_of_Brant-Brantford_Ontario.html
105,139,Lynden Park Mall,"Lynden Park Mall, Brantford, Ontario",43.17126355,-80.24006832307936,T105,3.2,"['Shopping Malls', 'Shopping Malls']",https://www.tripadvisor.ca/Attraction_Review-g154983-d4250350-Reviews-Lynden_Park_Mall-Brantford_Ontario.html
106,140,Brant County Museum & Archives,"57 Charlotte St, Brantford, Ontario",43.1418448,-80.26080928,T106,4.7,"['Speciality Museums', 'Speciality Museums']",https://www.tripadvisor.ca/Attraction_Review-g154983-d4269099-Reviews-Brant_County_Museum_Archives-Brantford_Ontario.html
107,142,Myrtleville House Museum,"34 Myrtleville Dr, Brantford, Ontario",43.17372848235294,-80.29712563529411,T107,4.3,"['Speciality Museums', 'Speciality Museums']",https://www.tripadvisor.ca/Attraction_Review-g154983-d4242716-Reviews-Myrtleville_House_Museum-Brantford_Ontario.html
108,143,Victoria Park,"65 Market Street, Brantford, Ontario",43.1439559,-80.264209,T108,4.2,"['Parks', 'Parks']",https://www.tripadvisor.ca/Attraction_Review-g154983-d13007197-Reviews-Victoria_Park-Brantford_Ontario.html
109,144,Mash Paddle Brewing Co,"111 Sherwood Dr, Brantford, Ontario",43.1333185,-80.2786962,T109,4.0,"['Breweries', 'Breweries']",https://www.tripadvisor.ca/Attraction_Review-g154983-d13109074-Reviews-Mash_Paddle_Brewing_Co-Brantford_Ontario.html
110,145,Brant County War Memorial,"6 Dalhousie Street, Brantford, Ontario",43.1392368,-80.2687218,T110,4.7,"['Parks', 'Parks']",https://www.tripadvisor.ca/Attraction_Review-g154983-d13297870-Reviews-Brant_County_War_Memorial-Brantford_Ontario.html
111,146,Steel Wheel Brewery,"105 Powerline Rd, Brantford, Ontario",43.195941324590166,-80.2197057704918,T111,4.8,"['Breweries', 'Breweries']",https://www.tripadvisor.ca/Attraction_Review-g154983-d17560808-Reviews-Steel_Wheel_Brewery-Brantford_Ontario.html
112,147,Personal Computer Museum,"13 Alma St, Brantford, Ontario",43.1577614,-80.2652081,T112,4.3,"['Speciality Museums', 'Speciality Museums']",https://www.tripadvisor.ca/Attraction_Review-g154983-d4267030-Reviews-Personal_Computer_Museum-Brantford_Ontario.html
113,148,The Carnival Museum,"114 Alice St, Brantford, Ontario",43.15118186666667,-80.25257713333333,T113,4.0,"['Speciality Museums', 'Speciality Museums']",https://www.tripadvisor.ca/Attraction_Review-g154983-d8423323-Reviews-The_Carnival_Museum-Brantford_Ontario.html
114,149,Grace Anglican Church,"4 Pearl St, Brantford, Ontario",43.141885349999995,-80.2682981131315,T114,5.0,"['Churches & Cathedrals', 'Churches & Cathedrals']",https://www.tripadvisor.ca/Attraction_Review-g154983-d4677681-Reviews-Grace_Anglican_Church-Brantford_Ontario.html
115,151,Brantford Arts Block,"111 Sherwood Dr, Brantford, Ontario",43.1333185,-80.2786962,T115,4.8,"['Points of Interest & Landmarks', 'Points of Interest & Landmarks']",https://www.tripadvisor.ca/Attraction_Review-g154983-d4412494-Reviews-Brantford_Arts_Block-Brantford_Ontario.html
116,152,Bell Memorial Gardens,"41 West Street, Brantford, Ontario",43.1457104,-80.2652012,T116,2.7,"['Gardens', 'Gardens']",https://www.tripadvisor.ca/Attraction_Review-g154983-d4282877-Reviews-Bell_Memorial_Gardens-Brantford_Ontario.html
117,155,Fulford Place,"287 King St, Brockville, Ontario",44.59750485,-75.67080998877552,T117,4.5,"['Historic Sites', 'Historic Sites']",https://www.tripadvisor.ca/Attraction_Review-g181758-d656675-Reviews-Fulford_Place-Brockville_Ontario.html
118,156,Blockhouse Island,"30 Blockhouse Island, Brockville, Ontario",44.5875081,-75.6810446,T118,4.6,"['Islands', 'Islands']",https://www.tripadvisor.ca/Attraction_Review-g181758-d12811962-Reviews-Blockhouse_Island-Brockville_Ontario.html
119,157,Aquatarium at Tall Ships Landing,"6 Broad St, Brockville, Ontario",44.5878484,-75.6826512,T119,3.9,"['Speciality Museums', 'Science Museums', 'Speciality Museums', 'Science Museums']",https://www.tripadvisor.ca/Attraction_Review-g181758-d10085041-Reviews-Aquatarium_at_Tall_Ships_Landing-Brockville_Ontario.html
120,158,Brockville Arts Centre,"235 King St, Brockville, Ontario",44.58665445,-75.6891501388458,T120,4.7,[],https://www.tripadvisor.ca/Attraction_Review-g181758-d2301513-Reviews-Brockville_Arts_Centre-Brockville_Ontario.html
121,159,St. Lawrence Park,"525 King St., Brockville, Ontario",44.5905831,-75.6826445,T121,4.4,"['Parks', 'Playgrounds', 'Parks', 'Playgrounds']",https://www.tripadvisor.ca/Attraction_Review-g181758-d10210225-Reviews-St_Lawrence_Park-Brockville_Ontario.html
122,162,Golden Hawk CF-86 Sabre Jet,"45 Blockhouse Island, Brockville, Ontario",44.5875081,-75.6810446,T122,4.0,"['Monuments & Statues', 'Monuments & Statues']",https://www.tripadvisor.ca/Attraction_Review-g181758-d1492209-Reviews-Golden_Hawk_CF_86_Sabre_Jet-Brockville_Ontario.html
123,164,Brockville Museum,"5 Henry St, Brockville, Ontario",44.58624815,-75.68655938718675,T123,4.5,"['Speciality Museums', 'History Museums', 'Speciality Museums', 'History Museums']",https://www.tripadvisor.ca/Attraction_Review-g181758-d4089856-Reviews-Brockville_Museum-Brockville_Ontario.html
124,170,John H. Fulford Fountain,"Court House Ave, Brockville, Ontario",44.5899813,-75.6849257,T124,5.0,"['Historic Sites', 'Fountains', 'Historic Sites', 'Fountains']",https://www.tripadvisor.ca/Attraction_Review-g181758-d12868933-Reviews-John_H_Fulford_Fountain-Brockville_Ontario.html
125,171,1000 Islands Mall,"2399 Parkedale Ave, Brockville, Ontario",44.6025766,-75.6991115,T125,2.5,"['Shopping Malls', 'Shopping Malls']",https://www.tripadvisor.ca/Attraction_Review-g181758-d2665977-Reviews-1000_Islands_Mall-Brockville_Ontario.html
126,172,Brockville Armouries,"144 King St, Brockville, Ontario",44.5945234,-75.67794565526697,T126,4.2,"['Historic Sites', 'Historic Sites']",https://www.tripadvisor.ca/Attraction_Review-g181758-d5570088-Reviews-Brockville_Armouries-Brockville_Ontario.html
127,175,Brockville Memorial Civic Centre,"60 Magedoma Blvd, Brockville, Ontario",44.60775405,-75.69888564452765,T127,4.3,"['Civic Centres', 'Civic Centres']",https://www.tripadvisor.ca/Attraction_Review-g181758-d5565562-Reviews-Brockville_Memorial_Civic_Centre-Brockville_Ontario.html
128,176,First Presbyterian Church,"10 Church St, Brockville, Ontario",44.590531049999996,-75.68657551545826,T128,4.5,"['Points of Interest & Landmarks', 'Churches & Cathedrals', 'Points of Interest & Landmarks', 'Churches & Cathedrals']",https://www.tripadvisor.ca/Attraction_Review-g181758-d5565558-Reviews-First_Presbyterian_Church-Brockville_Ontario.html
129,177,St. Francis Xavier Catholic Church,"66 Church St, Brockville, Ontario",44.589270049999996,-75.68898382530446,T129,4.5,"['Churches & Cathedrals', 'Churches & Cathedrals']",https://www.tripadvisor.ca/Attraction_Review-g181758-d17847194-Reviews-St_Francis_Xavier_Catholic_Church-Brockville_Ontario.html
130,180,First Baptist Church,"5 Pine Street, Brockville, Ontario",44.59071,-75.6843776,T130,4.0,"['Churches & Cathedrals', 'Churches & Cathedrals']",https://www.tripadvisor.ca/Attraction_Review-g181758-d12846137-Reviews-First_Baptist_Church-Brockville_Ontario.html
131,181,General Isaac Brock Monument,"Court House avenue, Brockville, Ontario",44.5899813,-75.6849257,T131,3.0,"['Monuments & Statues', 'Monuments & Statues']",https://www.tripadvisor.ca/Attraction_Review-g181758-d14996771-Reviews-General_Isaac_Brock_Monument-Brockville_Ontario.html
132,183,Burlington Waterfront Trail,"Lakeshore Road east, Burlington, Ontario",43.3719208,-79.7248756,T132,4.6,"['Biking Trails', 'Biking Trails']",https://www.tripadvisor.ca/Attraction_Review-g154984-d2478111-Reviews-Burlington_Waterfront_Trail-Burlington_Ontario.html
133,184,Royal Botanical Gardens,"680 Plains Rd, Burlington, Ontario",43.3347104,-79.8340164,T133,4.3,"['Gardens', 'Gardens']",https://www.tripadvisor.ca/Attraction_Review-g154984-d185110-Reviews-Royal_Botanical_Gardens-Burlington_Ontario.html
134,185,Spencer Smith Park,"1400 Lakeshore Road, Burlington, Ontario",43.32437051533923,-79.79588628938053,T134,4.6,"['Bodies of Water', 'Parks', 'Bodies of Water', 'Parks']",https://www.tripadvisor.ca/Attraction_Review-g154984-d8817411-Reviews-Spencer_Smith_Park-Burlington_Ontario.html
135,186,Mount Nemo Conservation Area,"5317 Guelph Line, Burlington, Ontario",43.354195,-79.8069741,T135,4.6,"['Nature & Wildlife Areas', 'Hiking Trails', 'Nature & Wildlife Areas', 'Hiking Trails']",https://www.tripadvisor.ca/Attraction_Review-g154984-d4263484-Reviews-Mount_Nemo_Conservation_Area-Burlington_Ontario.html
136,187,LaSalle Park,"50 North Shore, Burlington, Ontario",43.30402200912155,-79.84537534957362,T136,4.6,"['Parks', 'Parks']",https://www.tripadvisor.ca/Attraction_Review-g154984-d5461950-Reviews-LaSalle_Park-Burlington_Ontario.html
137,188,Paletta Lakefront Park and Mansion,"4250 Lakeshore Rd, Burlington, Ontario",43.35326444285714,-79.75479541428571,T137,4.5,"['Parks', 'Parks']",https://www.tripadvisor.ca/Attraction_Review-g154984-d4266798-Reviews-Paletta_Lakefront_Park_and_Mansion-Burlington_Ontario.html
138,189,Lowville Park,"6207 Guelph Line, Burlington, Ontario",43.43188777815608,-79.90699492286825,T138,4.4,"['Parks', 'Parks']",https://www.tripadvisor.ca/Attraction_Review-g154984-d5473168-Reviews-Lowville_Park-Burlington_Ontario.html
139,191,Art Gallery of Burlington,"1333 Lakeshore Rd, Burlington, Ontario",43.3208603,-79.8004307,T139,4.4,"['Art Galleries', 'Art Galleries']",https://www.tripadvisor.ca/Attraction_Review-g154984-d9569951-Reviews-Art_Gallery_of_Burlington-Burlington_Ontario.html
140,192,GO Transit,"2101 Fairview Street, Burlington, Ontario",43.340647,-79.8092977,T140,3.9,"['Mass Transportation Systems', 'Mass Transportation Systems']",https://www.tripadvisor.ca/Attraction_Review-g154984-d10630516-Reviews-GO_Transit-Burlington_Ontario.html
141,193,Beachway Park,"1100 Lakeshore Road, Burlington, Ontario",43.310122146559884,-79.80066061134998,T141,3.9,"['Parks', 'Parks']",https://www.tripadvisor.ca/Attraction_Review-g154984-d10452420-Reviews-Beachway_Park-Burlington_Ontario.html
142,194,Mapleview Shopping Centre,"900 Maple Ave., Burlington, Ontario",43.325903100000005,-79.82042175251246,T142,4.3,"['Shopping Malls', 'Shopping Malls']",https://www.tripadvisor.ca/Attraction_Review-g154984-d7145833-Reviews-Mapleview_Shopping_Centre-Burlington_Ontario.html
143,195,Ireland House Museum,"2168 Guelph Line, Burlington, Ontario",43.3675874,-79.8263013,T143,4.6,"['Speciality Museums', 'Speciality Museums']",https://www.tripadvisor.ca/Attraction_Review-g154984-d4066222-Reviews-Ireland_House_Museum-Burlington_Ontario.html
144,196,Brant Street Pier,"1400 Lakeshore Rd, Burlington, Ontario",43.32437051533923,-79.79588628938053,T144,4.0,"['Piers & Boardwalks', 'Piers & Boardwalks']",https://www.tripadvisor.ca/Attraction_Review-g154984-d13200510-Reviews-Brant_Street_Pier-Burlington_Ontario.html
145,197,Kerncliff Park,"2198 Kerns Rd, Burlington, Ontario",43.34795790189268,-79.85819889723301,T145,4.5,"['Parks', 'Parks']",https://www.tripadvisor.ca/Attraction_Review-g154984-d14085653-Reviews-Kerncliff_Park-Burlington_Ontario.html
146,198,Hendrie Valley,"444 Patricia Dr, Burlington, Ontario",43.2955163,-79.8670903,T146,4.7,"['Nature & Wildlife Areas', 'Nature & Wildlife Areas']",https://www.tripadvisor.ca/Attraction_Review-g154984-d9584802-Reviews-Hendrie_Valley-Burlington_Ontario.html
147,199,Burlington Mall,"Burlington Mall 777, Burlington, Ontario",43.3408481,-79.8097034,T147,3.7,"['Shopping Malls', 'Shopping Malls']",https://www.tripadvisor.ca/Attraction_Review-g154984-d4261136-Reviews-Burlington_Mall-Burlington_Ontario.html
148,200,Burlington Convention Centre,"1120 Burloak Drive, Burlington, Ontario",43.398055584615385,-79.7605307,T148,4.5,"['Conference & Convention Centres', 'Conference & Convention Centres']",https://www.tripadvisor.ca/Attraction_Review-g154984-d12459188-Reviews-Burlington_Convention_Centre-Burlington_Ontario.html
149,202,Burlington Public Library,"2331 New St, Burlington, Ontario",43.3358039,-79.79006614960123,T149,4.8,"['Libraries', 'Libraries']",https://www.tripadvisor.ca/Attraction_Review-g154984-d11711200-Reviews-Burlington_Public_Library-Burlington_Ontario.html
150,203,Joseph Brant Museum,"1240 North Shore, Burlington, Ontario",43.3143821,-79.8097105,T150,3.9,"['Speciality Museums', 'Speciality Museums']",https://www.tripadvisor.ca/Attraction_Review-g154984-d4066223-Reviews-Joseph_Brant_Museum-Burlington_Ontario.html
151,204,Burlington City Hall,"426 Brant St, Burlington, Ontario",43.3256621,-79.79888918811297,T151,4.0,"['Points of Interest & Landmarks', 'Points of Interest & Landmarks']",https://www.tripadvisor.ca/Attraction_Review-g154984-d4558040-Reviews-Burlington_City_Hall-Burlington_Ontario.html
152,205,Nickel Brook Brewing Co,"864 Drury Lane, Burlington, Ontario",43.3431723,-79.8049174,T152,4.8,"['Breweries', 'Breweries']",https://www.tripadvisor.ca/Attraction_Review-g154984-d14919518-Reviews-Nickel_Brook_Brewing_Co-Burlington_Ontario.html
153,206,City View Park,"Dundas Street East, Burlington, Ontario",43.4210344,-79.7920457,T153,4.0,"['Parks', 'Parks']",https://www.tripadvisor.ca/Attraction_Review-g154984-d4263481-Reviews-City_View_Park-Burlington_Ontario.html
154,207,Amazing Adventures Playland,"4325 Harvester Rd, Burlington, Ontario",43.371999800000005,-79.7738757125,T154,3.6,"['Playgrounds', 'Playgrounds']",https://www.tripadvisor.ca/Attraction_Review-g154984-d4283191-Reviews-Amazing_Adventures_Playland-Burlington_Ontario.html
155,209,Maple Park,"750 Maple Avenue, Burlington, Ontario",43.3240946,-79.8152201,T155,5.0,"['Parks', 'Playgrounds', 'Parks', 'Playgrounds']",https://www.tripadvisor.ca/Attraction_Review-g154984-d19616967-Reviews-Maple_Park-Burlington_Ontario.html
156,210,Walt Rickli Interactive Sculpture Garden,"6214 Lowville Park, Burlington, Ontario",43.4333593,-79.904882497774,T156,4.0,"['Art Galleries', 'Art Galleries']",https://www.tripadvisor.ca/Attraction_Review-g154984-d10712982-Reviews-Walt_Rickli_Interactive_Sculpture_Garden-Burlington_Ontario.html
157,212,Duncaster Park,"2330 Duncaster Dr, Burlington, Ontario",43.3645347,-79.84597373761073,T157,3.5,"['Parks', 'Hiking Trails', 'Forests', 'Parks', 'Hiking Trails', 'Forests']",https://www.tripadvisor.ca/Attraction_Review-g154984-d8826048-Reviews-Duncaster_Park-Burlington_Ontario.html
158,213,Sherwood Forest Park,"5270 Fairview St, Burlington, Ontario",43.381167595779885,-79.75619825258308,T158,2.0,"['Parks', 'Parks']",https://www.tripadvisor.ca/Attraction_Review-g154984-d19318787-Reviews-Sherwood_Forest_Park-Burlington_Ontario.html
159,215,Gage Park,"2 Wellington St, Brampton, Ontario",43.6842951,-79.7575472,T159,4.5,"['Parks', 'Parks']",https://www.tripadvisor.ca/Attraction_Review-g154982-d2535350-Reviews-Gage_Park-Brampton_Ontario.html
160,216,Donald M. Gordon Chinguacousy Park,"9050 Bramalea Rd, Brampton, Ontario",43.7258735,-79.72213457657124,T160,4.6,"['Parks', 'Parks']",https://www.tripadvisor.ca/Attraction_Review-g154982-d3427100-Reviews-Donald_M_Gordon_Chinguacousy_Park-Brampton_Ontario.html
161,217,Heart Lake Conservation Area,"10818 Heart Lake, Brampton, Ontario",43.7369623,-79.7819296,T161,4.2,"['Nature & Wildlife Areas', 'Nature & Wildlife Areas']",https://www.tripadvisor.ca/Attraction_Review-g154982-d4060361-Reviews-Heart_Lake_Conservation_Area-Brampton_Ontario.html
162,218,Rose Theatre Brampton,"1 Theatre Lane, Brampton, Ontario",43.687149500000004,-79.76011320098286,T162,4.6,"['Theatres', 'Theatres']",https://www.tripadvisor.ca/Attraction_Review-g154982-d4060172-Reviews-Rose_Theatre_Brampton-Brampton_Ontario.html
163,219,Professor's Lake Recreation Centre,"1660 North Park, Brampton, Ontario",43.6704598,-79.7270605,T163,4.3,"['Bodies of Water', 'Bodies of Water']",https://www.tripadvisor.ca/Attraction_Review-g154982-d7622762-Reviews-Professor_s_Lake_Recreation_Centre-Brampton_Ontario.html
164,220,Eldorado Park,"8520 Creditview Rd, Brampton, Ontario",43.6811064,-79.8160799,T164,4.1,"['Bodies of Water', 'Nature & Wildlife Areas', 'Parks', 'Bodies of Water', 'Nature & Wildlife Areas', 'Parks']",https://www.tripadvisor.ca/Attraction_Review-g154982-d8505186-Reviews-Eldorado_Park-Brampton_Ontario.html
165,221,Peel Art Gallery Museum & Archive (PAMA),"9 Wellington St, Brampton, Ontario",43.6842951,-79.7575472,T165,4.3,"['Art Museums', 'Art Museums']",https://www.tripadvisor.ca/Attraction_Review-g154982-d3675553-Reviews-Peel_Art_Gallery_Museum_Archive_PAMA-Brampton_Ontario.html
166,222,Wet 'n' Wild Toronto,"7855 Finch Ave, Brampton, Ontario",43.733728,-79.634292,T166,2.8,"['Water Parks', 'Water Parks']",https://www.tripadvisor.ca/Attraction_Review-g154982-d186832-Reviews-Wet_n_Wild_Toronto-Brampton_Ontario.html
167,223,The Big'r Apple Farm,"8674 Heritage Rd, Brampton, Ontario",43.6163447,-79.7850606,T167,3.9,"['Farms', 'Farms']",https://www.tripadvisor.ca/Attraction_Review-g154982-d4940997-Reviews-The_Big_r_Apple_Farm-Brampton_Ontario.html
168,225,Pearson Convention Center,"2638 Steeles Ave, Brampton, Ontario",43.661147,-79.7386763,T168,4.3,"['Conference & Convention Centres', 'Conference & Convention Centres']",https://www.tripadvisor.ca/Attraction_Review-g154982-d4060358-Reviews-Pearson_Convention_Center-Brampton_Ontario.html
169,227,CAA Centre,"7575 Kennedy Road, Brampton, Ontario",43.667493,-79.70840033618447,T169,3.7,"['Arenas & Stadiums', 'Arenas & Stadiums']",https://www.tripadvisor.ca/Attraction_Review-g154982-d3669789-Reviews-CAA_Centre-Brampton_Ontario.html
170,228,747 Flea Market,"75 Parkhurst Square, Brampton, Ontario",43.72739589106965,-79.66619540327352,T170,3.1,"['Flea & Street Markets', 'Flea & Street Markets']",https://www.tripadvisor.ca/Attraction_Review-g154982-d5085074-Reviews-747_Flea_Market-Brampton_Ontario.html
171,229,Carl Laidlaw Orchards,"9496 Heritage Rd, Brampton, Ontario",43.6462491,-79.8278536,T171,4.6,"['Farms', 'Farms']",https://www.tripadvisor.ca/Attraction_Review-g154982-d15154157-Reviews-Carl_Laidlaw_Orchards-Brampton_Ontario.html
172,230,Meadowvale Cemetery,"7732 Mavis Rd, Brampton, Ontario",43.6440908,-79.750592,T172,4.4,"['Cemeteries', 'Cemeteries']",https://www.tripadvisor.ca/Attraction_Review-g154982-d3948125-Reviews-Meadowvale_Cemetery-Brampton_Ontario.html
173,231,Garden Square,"12 Main St, Brampton, Ontario",43.6664656,-79.7343925,T173,4.8,"['Parks', 'Parks']",https://www.tripadvisor.ca/Attraction_Review-g154982-d15029586-Reviews-Garden_Square-Brampton_Ontario.html
174,232,Century Gardens Recreation Centre,"340 Vodden St, Brampton, Ontario",43.7084355,-79.75390441666667,T174,4.3,"['Sports Complexes', 'Playgrounds', 'Sports Complexes', 'Playgrounds']",https://www.tripadvisor.ca/Attraction_Review-g154982-d8447475-Reviews-Century_Gardens_Recreation_Centre-Brampton_Ontario.html
175,235,Trinity Common Mall,"210 Great Lakes, Brampton, Ontario",43.73482255882353,-79.76750393529412,T175,3.7,"['Shopping Malls', 'Shopping Malls']",https://www.tripadvisor.ca/Attraction_Review-g154982-d12154641-Reviews-Trinity_Common_Mall-Brampton_Ontario.html
176,236,Orchalaw Farms,"9726 Heritage Rd, Brampton, Ontario",43.652492440581156,-79.83384762504834,T176,3.1,"['Farms', 'Farms']",https://www.tripadvisor.ca/Attraction_Review-g154982-d4942153-Reviews-Orchalaw_Farms-Brampton_Ontario.html
177,237,Brampton City Hall,"2 Wellington St, Brampton, Ontario",43.6842951,-79.7575472,T177,3.7,"['Points of Interest & Landmarks', 'Points of Interest & Landmarks']",https://www.tripadvisor.ca/Attraction_Review-g154982-d4060353-Reviews-Brampton_City_Hall-Brampton_Ontario.html
178,238,Historic Bovaird House,"563 Bovaird Drive, Brampton, Ontario",43.7057066,-79.7868372,T178,4.2,"['Speciality Museums', 'Speciality Museums']",https://www.tripadvisor.ca/Attraction_Review-g154982-d4066620-Reviews-Historic_Bovaird_House-Brampton_Ontario.html
179,240,Jellybeenz Indoor Play & Party Center,"13-10 Bramhurst Ave, Brampton, Ontario",43.7199795,-79.6869737,T179,3.8,"['Playgrounds', 'Playgrounds']",https://www.tripadvisor.ca/Attraction_Review-g154982-d6665585-Reviews-Jellybeenz_Indoor_Play_Party_Center-Brampton_Ontario.html
180,241,The Country Apple Store,"8605 Heritage Rd, Brampton, Ontario",43.6294334,-79.8017981,T180,4.5,"['Farms', 'Farms']",https://www.tripadvisor.ca/Attraction_Review-g154982-d12498767-Reviews-The_Country_Apple_Store-Brampton_Ontario.html
181,242,ISKCON Brampton,"173 Advance Boulevard, Brampton, Ontario",43.6936168,-79.6919671,T181,4.2,"['Sacred & Religious Sites', 'Sacred & Religious Sites']",https://www.tripadvisor.ca/Attraction_Review-g154982-d3334792-Reviews-ISKCON_Brampton-Brampton_Ontario.html
182,243,Indian Line Conservation Area,"7625 Finch Ave, Brampton, Ontario",43.733774,-79.6342808,T182,3.5,"['Nature & Wildlife Areas', 'Nature & Wildlife Areas']",https://www.tripadvisor.ca/Attraction_Review-g154982-d7269523-Reviews-Indian_Line_Conservation_Area-Brampton_Ontario.html
183,244,Lester B. Pearson Theatre,"110-150 Central Park, Brampton, Ontario",43.8391814,-79.7062692,T183,4.7,"['Theatres', 'Theatres']",https://www.tripadvisor.ca/Attraction_Review-g154982-d4928304-Reviews-Lester_B_Pearson_Theatre-Brampton_Ontario.html
184,246,IN5 Experium Golden Temple,"70 Peel Centre, Brampton, Ontario",43.6895367,-79.7514583,T184,3.5,"['Speciality Museums', 'Speciality Museums']",https://www.tripadvisor.ca/Attraction_Review-g154982-d17549275-Reviews-IN5_Experium_Golden_Temple-Brampton_Ontario.html
185,247,New Apostolic Church,"45 Eastbourne Dr, Brampton, Ontario",43.7259066,-79.69946479042093,T185,5.0,"['Sacred & Religious Sites', 'Sacred & Religious Sites']",https://www.tripadvisor.ca/Attraction_Review-g154982-d11771508-Reviews-New_Apostolic_Church-Brampton_Ontario.html
186,248,Jim Archdekin Recreation Centre,"292 Conestoga Dr, Brampton, Ontario",43.7159067,-79.7863073,T186,3.0,"['Sports Complexes', 'Sports Complexes']",https://www.tripadvisor.ca/Attraction_Review-g154982-d17740782-Reviews-Jim_Archdekin_Recreation_Centre-Brampton_Ontario.html
187,250,Wayne Gretzky Sports Centre,"254 North Park, Brantford, Ontario",43.14082645,-80.26315993288691,T187,4.6,"['Sports Complexes', 'Sports Complexes']",https://www.tripadvisor.ca/Attraction_Review-g154983-d4567380-Reviews-Wayne_Gretzky_Sports_Centre-Brantford_Ontario.html
188,251,Bell Homestead,"94 Tutela Heights, Brantford, Ontario",43.1078099,-80.2707667,T188,4.4,"['Historic Sites', 'Historic Sites']",https://www.tripadvisor.ca/Attraction_Review-g154983-d296634-Reviews-Bell_Homestead-Brantford_Ontario.html
189,253,Glenhyrst Art Gallery and Gardens,"20 Ava Rd, Brantford, Ontario",43.1567611,-80.2866689,T189,4.6,"['Gardens', 'Gardens']",https://www.tripadvisor.ca/Attraction_Review-g154983-d2706705-Reviews-Glenhyrst_Art_Gallery_and_Gardens-Brantford_Ontario.html
190,254,Brantwood Farms,"251 Powerline Rd, Brantford, Ontario",43.1926387,-80.24200798304904,T190,4.5,"['Farms', 'Farms']",https://www.tripadvisor.ca/Attraction_Review-g154983-d4266654-Reviews-Brantwood_Farms-Brantford_Ontario.html
191,256,Sanderson Centre for the Performing Arts,"88 Dalhousie St, Brantford, Ontario",43.13952363333333,-80.26447206666667,T191,4.7,"['Theatres', 'Theatres']",https://www.tripadvisor.ca/Attraction_Review-g154983-d3553114-Reviews-Sanderson_Centre_for_the_Performing_Arts-Brantford_Ontario.html
192,257,Canadian Military Heritage Museum,"347 Greenwich St, Brantford, Ontario",43.1315581,-80.2511113,T192,4.9,"['Speciality Museums', 'Speciality Museums']",https://www.tripadvisor.ca/Attraction_Review-g154983-d4269102-Reviews-Canadian_Military_Heritage_Museum-Brantford_Ontario.html
193,258,Al's Shoe Factory,"135 King George, Brantford, Ontario",43.17107371666666,-80.27724561666668,T193,4.2,"['Factory Outlets', 'Factory Outlets']",https://www.tripadvisor.ca/Attraction_Review-g154983-d2536539-Reviews-Al_s_Shoe_Factory-Brantford_Ontario.html
194,259,Woodland Cultural Centre,"184 Mohawk St, Brantford, Ontario",43.127639450000004,-80.240407160264,T194,4.3,"['Art Galleries', 'Points of Interest & Landmarks', 'Art Galleries', 'Points of Interest & Landmarks']",https://www.tripadvisor.ca/Attraction_Review-g154983-d4242713-Reviews-Woodland_Cultural_Centre-Brantford_Ontario.html
195,260,Mohawk Chapel,"301 Mohawk Street, Brantford, Ontario",43.1244365,-80.23482714793113,T195,4.4,"['Points of Interest & Landmarks', 'Points of Interest & Landmarks']",https://www.tripadvisor.ca/Attraction_Review-g154983-d4082943-Reviews-Mohawk_Chapel-Brantford_Ontario.html
196,261,Elements Casino Brantford,"40 Icomm Dr, Brantford, Ontario",43.13646895,-80.26570853385556,T196,3.0,"['Casinos', 'Casinos']",https://www.tripadvisor.ca/Attraction_Review-g154983-d9749554-Reviews-Elements_Casino_Brantford-Brantford_Ontario.html
197,262,Bell City Brewery,"51 Woodyatt Dr, Brantford, Ontario",43.1703967,-80.2366512,T197,4.6,"['Breweries', 'Breweries']",https://www.tripadvisor.ca/Attraction_Review-g154983-d9554454-Reviews-Bell_City_Brewery-Brantford_Ontario.html
198,263,Crossroads Flea Market,"1146 Colborne St, Brantford, Ontario",43.1381423,-80.2686929,T198,3.8,"['Flea & Street Markets', 'Flea & Street Markets']",https://www.tripadvisor.ca/Attraction_Review-g154983-d4266820-Reviews-Crossroads_Flea_Market-Brantford_Ontario.html
199,265,Glenhyrst Art Gallery of Brant,"20 Ava Rd, Brantford, Ontario",43.1567611,-80.2866689,T199,4.4,"['Art Galleries', 'Art Galleries']",https://www.tripadvisor.ca/Attraction_Review-g154983-d2706700-Reviews-Glenhyrst_Art_Gallery_of_Brant-Brantford_Ontario.html
200,266,Lynden Park Mall,"Lynden Park Mall, Brantford, Ontario",43.17126355,-80.24006832307936,T200,3.2,"['Shopping Malls', 'Shopping Malls']",https://www.tripadvisor.ca/Attraction_Review-g154983-d4250350-Reviews-Lynden_Park_Mall-Brantford_Ontario.html
201,267,Brant County Museum & Archives,"57 Charlotte St, Brantford, Ontario",43.1418448,-80.26080928,T201,4.7,"['Speciality Museums', 'Speciality Museums']",https://www.tripadvisor.ca/Attraction_Review-g154983-d4269099-Reviews-Brant_County_Museum_Archives-Brantford_Ontario.html
202,269,Myrtleville House Museum,"34 Myrtleville Dr, Brantford, Ontario",43.17372848235294,-80.29712563529411,T202,4.3,"['Speciality Museums', 'Speciality Museums']",https://www.tripadvisor.ca/Attraction_Review-g154983-d4242716-Reviews-Myrtleville_House_Museum-Brantford_Ontario.html
203,270,Victoria Park,"65 Market Street, Brantford, Ontario",43.1439559,-80.264209,T203,4.2,"['Parks', 'Parks']",https://www.tripadvisor.ca/Attraction_Review-g154983-d13007197-Reviews-Victoria_Park-Brantford_Ontario.html
204,271,Mash Paddle Brewing Co,"111 Sherwood Dr, Brantford, Ontario",43.1333185,-80.2786962,T204,4.0,"['Breweries', 'Breweries']",https://www.tripadvisor.ca/Attraction_Review-g154983-d13109074-Reviews-Mash_Paddle_Brewing_Co-Brantford_Ontario.html
205,272,Brant County War Memorial,"6 Dalhousie Street, Brantford, Ontario",43.1392368,-80.2687218,T205,4.7,"['Parks', 'Parks']",https://www.tripadvisor.ca/Attraction_Review-g154983-d13297870-Reviews-Brant_County_War_Memorial-Brantford_Ontario.html
206,273,Steel Wheel Brewery,"105 Powerline Rd, Brantford, Ontario",43.195941324590166,-80.2197057704918,T206,4.8,"['Breweries', 'Breweries']",https://www.tripadvisor.ca/Attraction_Review-g154983-d17560808-Reviews-Steel_Wheel_Brewery-Brantford_Ontario.html
207,274,Personal Computer Museum,"13 Alma St, Brantford, Ontario",43.1577614,-80.2652081,T207,4.3,"['Speciality Museums', 'Speciality Museums']",https://www.tripadvisor.ca/Attraction_Review-g154983-d4267030-Reviews-Personal_Computer_Museum-Brantford_Ontario.html
208,275,The Carnival Museum,"114 Alice St, Brantford, Ontario",43.15118186666667,-80.25257713333333,T208,4.0,"['Speciality Museums', 'Speciality Museums']",https://www.tripadvisor.ca/Attraction_Review-g154983-d8423323-Reviews-The_Carnival_Museum-Brantford_Ontario.html
209,276,Grace Anglican Church,"4 Pearl St, Brantford, Ontario",43.141885349999995,-80.2682981131315,T209,5.0,"['Churches & Cathedrals', 'Churches & Cathedrals']",https://www.tripadvisor.ca/Attraction_Review-g154983-d4677681-Reviews-Grace_Anglican_Church-Brantford_Ontario.html
210,278,Brantford Arts Block,"111 Sherwood Dr, Brantford, Ontario",43.1333185,-80.2786962,T210,4.8,"['Points of Interest & Landmarks', 'Points of Interest & Landmarks']",https://www.tripadvisor.ca/Attraction_Review-g154983-d4412494-Reviews-Brantford_Arts_Block-Brantford_Ontario.html
211,279,Bell Memorial Gardens,"41 West Street, Brantford, Ontario",43.1457104,-80.2652012,T211,2.7,"['Gardens', 'Gardens']",https://www.tripadvisor.ca/Attraction_Review-g154983-d4282877-Reviews-Bell_Memorial_Gardens-Brantford_Ontario.html
212,282,Fulford Place,"287 King St, Brockville, Ontario",44.59750485,-75.67080998877552,T212,4.5,"['Historic Sites', 'Historic Sites']",https://www.tripadvisor.ca/Attraction_Review-g181758-d656675-Reviews-Fulford_Place-Brockville_Ontario.html
213,283,Blockhouse Island,"30 Blockhouse Island, Brockville, Ontario",44.5875081,-75.6810446,T213,4.6,"['Islands', 'Islands']",https://www.tripadvisor.ca/Attraction_Review-g181758-d12811962-Reviews-Blockhouse_Island-Brockville_Ontario.html
214,284,Aquatarium at Tall Ships Landing,"6 Broad St, Brockville, Ontario",44.5878484,-75.6826512,T214,3.9,"['Speciality Museums', 'Science Museums', 'Speciality Museums', 'Science Museums']",https://www.tripadvisor.ca/Attraction_Review-g181758-d10085041-Reviews-Aquatarium_at_Tall_Ships_Landing-Brockville_Ontario.html
215,285,Brockville Arts Centre,"235 King St, Brockville, Ontario",44.58665445,-75.6891501388458,T215,4.7,[],https://www.tripadvisor.ca/Attraction_Review-g181758-d2301513-Reviews-Brockville_Arts_Centre-Brockville_Ontario.html
216,286,St. Lawrence Park,"525 King St., Brockville, Ontario",44.5905831,-75.6826445,T216,4.4,"['Parks', 'Playgrounds', 'Parks', 'Playgrounds']",https://www.tripadvisor.ca/Attraction_Review-g181758-d10210225-Reviews-St_Lawrence_Park-Brockville_Ontario.html
217,289,Golden Hawk CF-86 Sabre Jet,"45 Blockhouse Island, Brockville, Ontario",44.5875081,-75.6810446,T217,4.0,"['Monuments & Statues', 'Monuments & Statues']",https://www.tripadvisor.ca/Attraction_Review-g181758-d1492209-Reviews-Golden_Hawk_CF_86_Sabre_Jet-Brockville_Ontario.html
218,291,Brockville Museum,"5 Henry St, Brockville, Ontario",44.58624815,-75.68655938718675,T218,4.5,"['Speciality Museums', 'History Museums', 'Speciality Museums', 'History Museums']",https://www.tripadvisor.ca/Attraction_Review-g181758-d4089856-Reviews-Brockville_Museum-Brockville_Ontario.html
219,297,John H. Fulford Fountain,"Court House Ave, Brockville, Ontario",44.5899813,-75.6849257,T219,5.0,"['Historic Sites', 'Fountains', 'Historic Sites', 'Fountains']",https://www.tripadvisor.ca/Attraction_Review-g181758-d12868933-Reviews-John_H_Fulford_Fountain-Brockville_Ontario.html
220,298,1000 Islands Mall,"2399 Parkedale Ave, Brockville, Ontario",44.6025766,-75.6991115,T220,2.5,"['Shopping Malls', 'Shopping Malls']",https://www.tripadvisor.ca/Attraction_Review-g181758-d2665977-Reviews-1000_Islands_Mall-Brockville_Ontario.html
221,299,Brockville Armouries,"144 King St, Brockville, Ontario",44.5945234,-75.67794565526697,T221,4.2,"['Historic Sites', 'Historic Sites']",https://www.tripadvisor.ca/Attraction_Review-g181758-d5570088-Reviews-Brockville_Armouries-Brockville_Ontario.html
222,302,Brockville Memorial Civic Centre,"60 Magedoma Blvd, Brockville, Ontario",44.60775405,-75.69888564452765,T222,4.3,"['Civic Centres', 'Civic Centres']",https://www.tripadvisor.ca/Attraction_Review-g181758-d5565562-Reviews-Brockville_Memorial_Civic_Centre-Brockville_Ontario.html
223,303,First Presbyterian Church,"10 Church St, Brockville, Ontario",44.590531049999996,-75.68657551545826,T223,4.5,"['Points of Interest & Landmarks', 'Churches & Cathedrals', 'Points of Interest & Landmarks', 'Churches & Cathedrals']",https://www.tripadvisor.ca/Attraction_Review-g181758-d5565558-Reviews-First_Presbyterian_Church-Brockville_Ontario.html
224,304,St. Francis Xavier Catholic Church,"66 Church St, Brockville, Ontario",44.589270049999996,-75.68898382530446,T224,4.5,"['Churches & Cathedrals', 'Churches & Cathedrals']",https://www.tripadvisor.ca/Attraction_Review-g181758-d17847194-Reviews-St_Francis_Xavier_Catholic_Church-Brockville_Ontario.html
225,307,First Baptist Church,"5 Pine Street, Brockville, Ontario",44.59071,-75.6843776,T225,4.0,"['Churches & Cathedrals', 'Churches & Cathedrals']",https://www.tripadvisor.ca/Attraction_Review-g181758-d12846137-Reviews-First_Baptist_Church-Brockville_Ontario.html
226,308,General Isaac Brock Monument,"Court House avenue, Brockville, Ontario",44.5899813,-75.6849257,T226,3.0,"['Monuments & Statues', 'Monuments & Statues']",https://www.tripadvisor.ca/Attraction_Review-g181758-d14996771-Reviews-General_Isaac_Brock_Monument-Brockville_Ontario.html
227,310,Burlington Waterfront Trail,"Lakeshore Road east, Burlington, Ontario",43.3719208,-79.7248756,T227,4.6,"['Biking Trails', 'Biking Trails']",https://www.tripadvisor.ca/Attraction_Review-g154984-d2478111-Reviews-Burlington_Waterfront_Trail-Burlington_Ontario.html
228,311,Royal Botanical Gardens,"680 Plains Rd, Burlington, Ontario",43.3347104,-79.8340164,T228,4.3,"['Gardens', 'Gardens']",https://www.tripadvisor.ca/Attraction_Review-g154984-d185110-Reviews-Royal_Botanical_Gardens-Burlington_Ontario.html
229,312,Spencer Smith Park,"1400 Lakeshore Road, Burlington, Ontario",43.32437051533923,-79.79588628938053,T229,4.6,"['Bodies of Water', 'Parks', 'Bodies of Water', 'Parks']",https://www.tripadvisor.ca/Attraction_Review-g154984-d8817411-Reviews-Spencer_Smith_Park-Burlington_Ontario.html
230,313,Mount Nemo Conservation Area,"5317 Guelph Line, Burlington, Ontario",43.354195,-79.8069741,T230,4.6,"['Nature & Wildlife Areas', 'Hiking Trails', 'Nature & Wildlife Areas', 'Hiking Trails']",https://www.tripadvisor.ca/Attraction_Review-g154984-d4263484-Reviews-Mount_Nemo_Conservation_Area-Burlington_Ontario.html
231,314,LaSalle Park,"50 North Shore, Burlington, Ontario",43.30402200912155,-79.84537534957362,T231,4.6,"['Parks', 'Parks']",https://www.tripadvisor.ca/Attraction_Review-g154984-d5461950-Reviews-LaSalle_Park-Burlington_Ontario.html
232,315,Paletta Lakefront Park and Mansion,"4250 Lakeshore Rd, Burlington, Ontario",43.35326444285714,-79.75479541428571,T232,4.5,"['Parks', 'Parks']",https://www.tripadvisor.ca/Attraction_Review-g154984-d4266798-Reviews-Paletta_Lakefront_Park_and_Mansion-Burlington_Ontario.html
233,316,Lowville Park,"6207 Guelph Line, Burlington, Ontario",43.43188777815608,-79.90699492286825,T233,4.4,"['Parks', 'Parks']",https://www.tripadvisor.ca/Attraction_Review-g154984-d5473168-Reviews-Lowville_Park-Burlington_Ontario.html
234,318,Art Gallery of Burlington,"1333 Lakeshore Rd, Burlington, Ontario",43.3208603,-79.8004307,T234,4.4,"['Art Galleries', 'Art Galleries']",https://www.tripadvisor.ca/Attraction_Review-g154984-d9569951-Reviews-Art_Gallery_of_Burlington-Burlington_Ontario.html
235,319,GO Transit,"2101 Fairview Street, Burlington, Ontario",43.340647,-79.8092977,T235,3.9,"['Mass Transportation Systems', 'Mass Transportation Systems']",https://www.tripadvisor.ca/Attraction_Review-g154984-d10630516-Reviews-GO_Transit-Burlington_Ontario.html
236,320,Beachway Park,"1100 Lakeshore Road, Burlington, Ontario",43.310122146559884,-79.80066061134998,T236,3.9,"['Parks', 'Parks']",https://www.tripadvisor.ca/Attraction_Review-g154984-d10452420-Reviews-Beachway_Park-Burlington_Ontario.html
237,321,Mapleview Shopping Centre,"900 Maple Ave., Burlington, Ontario",43.325903100000005,-79.82042175251246,T237,4.3,"['Shopping Malls', 'Shopping Malls']",https://www.tripadvisor.ca/Attraction_Review-g154984-d7145833-Reviews-Mapleview_Shopping_Centre-Burlington_Ontario.html
238,322,Ireland House Museum,"2168 Guelph Line, Burlington, Ontario",43.3675874,-79.8263013,T238,4.6,"['Speciality Museums', 'Speciality Museums']",https://www.tripadvisor.ca/Attraction_Review-g154984-d4066222-Reviews-Ireland_House_Museum-Burlington_Ontario.html
239,323,Brant Street Pier,"1400 Lakeshore Rd, Burlington, Ontario",43.32437051533923,-79.79588628938053,T239,4.0,"['Piers & Boardwalks', 'Piers & Boardwalks']",https://www.tripadvisor.ca/Attraction_Review-g154984-d13200510-Reviews-Brant_Street_Pier-Burlington_Ontario.html
240,324,Kerncliff Park,"2198 Kerns Rd, Burlington, Ontario",43.34795790189268,-79.85819889723301,T240,4.5,"['Parks', 'Parks']",https://www.tripadvisor.ca/Attraction_Review-g154984-d14085653-Reviews-Kerncliff_Park-Burlington_Ontario.html
241,325,Hendrie Valley,"444 Patricia Dr, Burlington, Ontario",43.2955163,-79.8670903,T241,4.7,"['Nature & Wildlife Areas', 'Nature & Wildlife Areas']",https://www.tripadvisor.ca/Attraction_Review-g154984-d9584802-Reviews-Hendrie_Valley-Burlington_Ontario.html
242,326,Burlington Mall,"Burlington Mall 777, Burlington, Ontario",43.3408481,-79.8097034,T242,3.7,"['Shopping Malls', 'Shopping Malls']",https://www.tripadvisor.ca/Attraction_Review-g154984-d4261136-Reviews-Burlington_Mall-Burlington_Ontario.html
243,327,Burlington Convention Centre,"1120 Burloak Drive, Burlington, Ontario",43.398055584615385,-79.7605307,T243,4.5,"['Conference & Convention Centres', 'Conference & Convention Centres']",https://www.tripadvisor.ca/Attraction_Review-g154984-d12459188-Reviews-Burlington_Convention_Centre-Burlington_Ontario.html
244,329,Burlington Public Library,"2331 New St, Burlington, Ontario",43.3358039,-79.79006614960123,T244,4.8,"['Libraries', 'Libraries']",https://www.tripadvisor.ca/Attraction_Review-g154984-d11711200-Reviews-Burlington_Public_Library-Burlington_Ontario.html
245,330,Joseph Brant Museum,"1240 North Shore, Burlington, Ontario",43.3143821,-79.8097105,T245,3.9,"['Speciality Museums', 'Speciality Museums']",https://www.tripadvisor.ca/Attraction_Review-g154984-d4066223-Reviews-Joseph_Brant_Museum-Burlington_Ontario.html
246,331,Burlington City Hall,"426 Brant St, Burlington, Ontario",43.3256621,-79.79888918811297,T246,4.0,"['Points of Interest & Landmarks', 'Points of Interest & Landmarks']",https://www.tripadvisor.ca/Attraction_Review-g154984-d4558040-Reviews-Burlington_City_Hall-Burlington_Ontario.html
247,332,Nickel Brook Brewing Co,"864 Drury Lane, Burlington, Ontario",43.3431723,-79.8049174,T247,4.8,"['Breweries', 'Breweries']",https://www.tripadvisor.ca/Attraction_Review-g154984-d14919518-Reviews-Nickel_Brook_Brewing_Co-Burlington_Ontario.html
248,333,City View Park,"Dundas Street East, Burlington, Ontario",43.4210344,-79.7920457,T248,4.0,"['Parks', 'Parks']",https://www.tripadvisor.ca/Attraction_Review-g154984-d4263481-Reviews-City_View_Park-Burlington_Ontario.html
249,334,Amazing Adventures Playland,"4325 Harvester Rd, Burlington, Ontario",43.371999800000005,-79.7738757125,T249,3.6,"['Playgrounds', 'Playgrounds']",https://www.tripadvisor.ca/Attraction_Review-g154984-d4283191-Reviews-Amazing_Adventures_Playland-Burlington_Ontario.html
250,336,Maple Park,"750 Maple Avenue, Burlington, Ontario",43.3240946,-79.8152201,T250,5.0,"['Parks', 'Playgrounds', 'Parks', 'Playgrounds']",https://www.tripadvisor.ca/Attraction_Review-g154984-d19616967-Reviews-Maple_Park-Burlington_Ontario.html
251,337,Walt Rickli Interactive Sculpture Garden,"6214 Lowville Park, Burlington, Ontario",43.4333593,-79.904882497774,T251,4.0,"['Art Galleries', 'Art Galleries']",https://www.tripadvisor.ca/Attraction_Review-g154984-d10712982-Reviews-Walt_Rickli_Interactive_Sculpture_Garden-Burlington_Ontario.html
252,339,Duncaster Park,"2330 Duncaster Dr, Burlington, Ontario",43.3645347,-79.84597373761073,T252,3.5,"['Parks', 'Hiking Trails', 'Forests', 'Parks', 'Hiking Trails', 'Forests']",https://www.tripadvisor.ca/Attraction_Review-g154984-d8826048-Reviews-Duncaster_Park-Burlington_Ontario.html
253,340,Sherwood Forest Park,"5270 Fairview St, Burlington, Ontario",43.381167595779885,-79.75619825258308,T253,2.0,"['Parks', 'Parks']",https://www.tripadvisor.ca/Attraction_Review-g154984-d19318787-Reviews-Sherwood_Forest_Park-Burlington_Ontario.html
254,342,Cambridge Butterfly Conservatory,"2500 Kossuth Rd, Cambridge, Ontario",43.4521635,-80.3673069,T254,4.4,"['Speciality Museums', 'Nature & Wildlife Areas', 'Speciality Museums', 'Nature & Wildlife Areas']",https://www.tripadvisor.ca/Attraction_Review-g154985-d2423068-Reviews-Cambridge_Butterfly_Conservatory-Cambridge_Region_of_Waterloo_Ontario.html
255,343,Hamilton Family Theatre Cambridge,"46 Grand Ave, Cambridge, Ontario",43.3600536,-80.3123023,T255,4.8,"['Theatres', 'Theatres']",https://www.tripadvisor.ca/Attraction_Review-g154985-d4273138-Reviews-Hamilton_Family_Theatre_Cambridge-Cambridge_Region_of_Waterloo_Ontario.html
256,345,Riverside Park,"49 King Street, Cambridge, Ontario",43.40021,-80.366399,T256,4.3,"['Parks', 'Parks']",https://www.tripadvisor.ca/Attraction_Review-g154985-d4103208-Reviews-Riverside_Park-Cambridge_Region_of_Waterloo_Ontario.html
257,347,Fashion History Museum,"74 Queen St, Cambridge, Ontario",43.4204108,-80.3279678,T257,4.6,"['Speciality Museums', 'Speciality Museums']",https://www.tripadvisor.ca/Attraction_Review-g154985-d5287874-Reviews-Fashion_History_Museum-Cambridge_Region_of_Waterloo_Ontario.html
258,348,Mill Race Park,"36 Water St, Cambridge, Ontario",43.3532892,-80.3155589,T258,4.5,"['Parks', 'Parks']",https://www.tripadvisor.ca/Attraction_Review-g154985-d8046902-Reviews-Mill_Race_Park-Cambridge_Region_of_Waterloo_Ontario.html
259,349,Four Fathers Brewing Co,"125 Guelph Ave, Cambridge, Ontario",43.4348237,-80.3114781,T259,4.0,"['Breweries', 'Breweries']",https://www.tripadvisor.ca/Attraction_Review-g154985-d15078653-Reviews-Four_Fathers_Brewing_Co-Cambridge_Region_of_Waterloo_Ontario.html
260,350,Shade's Mills,"450 Avenue Rd, Cambridge, Ontario",43.381789360377354,-80.29086396037735,T260,4.4,"['Parks', 'Hiking Trails', 'Parks', 'Hiking Trails']",https://www.tripadvisor.ca/Attraction_Review-g154985-d6624154-Reviews-Shade_s_Mills-Cambridge_Region_of_Waterloo_Ontario.html
261,351,Churchill Park,"200 Christopher Dr, Cambridge, Ontario",43.343874536512025,-80.30098149632401,T261,4.3,"['Parks', 'Playgrounds', 'Parks', 'Playgrounds']",https://www.tripadvisor.ca/Attraction_Review-g154985-d7613236-Reviews-Churchill_Park-Cambridge_Region_of_Waterloo_Ontario.html
262,352,Grand River Brewing,"295 Ainslie St, Cambridge, Ontario",43.350815,-80.313503,T262,4.4,"['Breweries', 'Breweries']",https://www.tripadvisor.ca/Attraction_Review-g154985-d4103200-Reviews-Grand_River_Brewing-Cambridge_Region_of_Waterloo_Ontario.html
263,354,McDougall Cottage Historic Site,"89 Grand Ave, Cambridge, Ontario",43.3600536,-80.3123023,T263,4.7,"['Historic Sites', 'Historic Sites']",https://www.tripadvisor.ca/Attraction_Review-g154985-d584087-Reviews-McDougall_Cottage_Historic_Site-Cambridge_Region_of_Waterloo_Ontario.html
264,356,Playfit Kids Club,"366 Hespeler Rd, Cambridge, Ontario",43.391725,-80.3239685,T264,3.9,"['Playgrounds', 'Playgrounds']",https://www.tripadvisor.ca/Attraction_Review-g154985-d5523611-Reviews-Playfit_Kids_Club-Cambridge_Region_of_Waterloo_Ontario.html
265,357,Cambridge Ice Centre,"355 Hespeler Road, Cambridge, Ontario",43.39306335,-80.31950656519962,T265,4.0,"['Sports Complexes', 'Sports Complexes']",https://www.tripadvisor.ca/Attraction_Review-g154985-d3350474-Reviews-Cambridge_Ice_Centre-Cambridge_Region_of_Waterloo_Ontario.html
266,358,Rhythm And Brews,"1000 Bishop St, Cambridge, Ontario",43.3959581,-80.3201873,T266,4.8,"['Breweries', 'Breweries']",https://www.tripadvisor.ca/Attraction_Review-g154985-d15185140-Reviews-Rhythm_And_Brews-Cambridge_Region_of_Waterloo_Ontario.html
267,361,Cambridge Smartcentre,"22 Pinebush Rd, Cambridge, Ontario",43.40870913333333,-80.32469513333334,T267,3.8,"['Shopping Malls', 'Shopping Malls']",https://www.tripadvisor.ca/Attraction_Review-g154985-d9859336-Reviews-Cambridge_Smartcentre-Cambridge_Region_of_Waterloo_Ontario.html
268,363,Galt Arena Gardens,"98 Shade St, Cambridge, Ontario",43.3630356,-80.3065946,T268,5.0,"['Arenas & Stadiums', 'Arenas & Stadiums']",https://www.tripadvisor.ca/Attraction_Review-g154985-d17529204-Reviews-Galt_Arena_Gardens-Cambridge_Region_of_Waterloo_Ontario.html
269,366,Cambridge Sculpture Garden,"53 Grand Ave, Cambridge, Ontario",43.3922845,-80.3022428,T269,3.8,"['Gardens', 'Gardens']",https://www.tripadvisor.ca/Attraction_Review-g154985-d4096686-Reviews-Cambridge_Sculpture_Garden-Cambridge_Region_of_Waterloo_Ontario.html
270,367,Fire Hall Museum & Education Centre,"56 Dickson St, Cambridge, Ontario",43.3599515,-80.3119245,T270,4.1,"['Speciality Museums', 'Speciality Museums']",https://www.tripadvisor.ca/Attraction_Review-g154985-d1743472-Reviews-Fire_Hall_Museum_Education_Centre-Cambridge_Region_of_Waterloo_Ontario.html
271,368,Hespeler Heritage Centre,"11 Tannery St, Cambridge, Ontario",43.430220266666666,-80.30980720000001,T271,4.0,"['History Museums', 'History Museums']",https://www.tripadvisor.ca/Attraction_Review-g154985-d10199817-Reviews-Hespeler_Heritage_Centre-Cambridge_Region_of_Waterloo_Ontario.html
272,369,Barncat Artisan Ales,"1600 Industrial Rd, Cambridge, Ontario",43.391865,-80.329378,T272,5.0,"['Breweries', 'Breweries']",https://www.tripadvisor.ca/Attraction_Review-g154985-d13108836-Reviews-Barncat_Artisan_Ales-Cambridge_Region_of_Waterloo_Ontario.html
273,370,Hespeler Village Market,"11 Tannery St, Cambridge, Ontario",43.430220266666666,-80.30980720000001,T273,5.0,"['Farmers Markets', 'Farmers Markets']",https://www.tripadvisor.ca/Attraction_Review-g154985-d12558438-Reviews-Hespeler_Village_Market-Cambridge_Region_of_Waterloo_Ontario.html
274,371,Soper Park,"120 Shade Street, Cambridge, Ontario",43.363242,-80.305912,T274,3.0,"['Parks', 'Parks']",https://www.tripadvisor.ca/Attraction_Review-g154985-d13123601-Reviews-Soper_Park-Cambridge_Region_of_Waterloo_Ontario.html
275,373,Science North,"100 Ramsey Lake, Sudbury, Ontario",47.4466073,-82.3396205,T275,4.6,"['Speciality Museums', 'Speciality Museums']",https://www.tripadvisor.ca/Attraction_Review-g155016-d269867-Reviews-Science_North-Sudbury_Northeastern_Ontario_Ontario.html
276,374,Big Nickel & Dynamic Earth,"122 Big Nickel, Sudbury, Ontario",46.4735124,-81.0338178,T276,4.3,"['Points of Interest & Landmarks', 'Points of Interest & Landmarks']",https://www.tripadvisor.ca/Attraction_Review-g155016-d186732-Reviews-Big_Nickel_Dynamic_Earth-Sudbury_Northeastern_Ontario_Ontario.html
277,375,Bell Park Walkway / Boardwalk,"506 Elizabeth St, Sudbury, Ontario",46.4814976,-80.9865827,T277,4.6,"['Points of Interest & Landmarks', 'Piers & Boardwalks', 'Parks', 'Points of Interest & Landmarks', 'Piers & Boardwalks', 'Parks']",https://www.tripadvisor.ca/Attraction_Review-g155016-d4051141-Reviews-Bell_Park_Walkway_Boardwalk-Sudbury_Northeastern_Ontario_Ontario.html
278,377,Lake Laurentian Conservation Area,"2309 South Bay, Sudbury, Ontario",46.4882224,-80.96537068340258,T278,4.5,"['Nature & Wildlife Areas', 'Nature & Wildlife Areas']",https://www.tripadvisor.ca/Attraction_Review-g155016-d4056540-Reviews-Lake_Laurentian_Conservation_Area-Sudbury_Northeastern_Ontario_Ontario.html
279,378,Grotto of Our Lady of Lourdes,"271 Van Horne, Sudbury, Ontario",46.4867831,-80.9825744,T279,4.4,"['Points of Interest & Landmarks', 'Points of Interest & Landmarks']",https://www.tripadvisor.ca/Attraction_Review-g155016-d6583805-Reviews-Grotto_of_Our_Lady_of_Lourdes-Sudbury_Northeastern_Ontario_Ontario.html
280,379,Fielding Memorial Park,"345 Fielding Road, Sudbury, Ontario",46.42660415,-81.09655915793516,T280,4.2,"['Parks', 'Parks']",https://www.tripadvisor.ca/Attraction_Review-g155016-d4444207-Reviews-Fielding_Memorial_Park-Sudbury_Northeastern_Ontario_Ontario.html
281,382,Bell Park,"100 Ramsey Lake, Sudbury, Ontario",47.4466073,-82.3396205,T281,4.5,"['Bodies of Water', 'Beaches', 'Parks', 'Bodies of Water', 'Beaches', 'Parks']",https://www.tripadvisor.ca/Attraction_Review-g155016-d8246279-Reviews-Bell_Park-Sudbury_Northeastern_Ontario_Ontario.html
282,384,Bay Used Books,"124 Elm St, Sudbury, Ontario",46.493372699999995,-81.0000313749032,T282,4.8,"['Points of Interest & Landmarks', 'Points of Interest & Landmarks']",https://www.tripadvisor.ca/Attraction_Review-g155016-d10540637-Reviews-Bay_Used_Books-Sudbury_Northeastern_Ontario_Ontario.html
283,386,Northern Exotics,"517 Kathleen St, Sudbury, Ontario",46.5001158,-81.00315084985809,T283,4.4,"['Zoos', 'Zoos']",https://www.tripadvisor.ca/Attraction_Review-g155016-d10439768-Reviews-Northern_Exotics-Sudbury_Northeastern_Ontario_Ontario.html
284,387,Stack Brewing,"1350 Kelly Lake, Sudbury, Ontario",46.4646228,-81.0281479,T284,4.1,"['Breweries', 'Breweries']",https://www.tripadvisor.ca/Attraction_Review-g155016-d4473953-Reviews-Stack_Brewing-Sudbury_Northeastern_Ontario_Ontario.html
285,388,Moonlight Beach,"Moonlight Beach Avenue, Sudbury, Ontario",46.473659749999996,-80.90982240721718,T285,4.0,"['Beaches', 'Beaches']",https://www.tripadvisor.ca/Attraction_Review-g155016-d8532015-Reviews-Moonlight_Beach-Sudbury_Northeastern_Ontario_Ontario.html
286,389,Anderson Farm Museum,"550 Regional Rd, Sudbury, Ontario",46.5940604,-81.1729779,T286,4.5,"['Speciality Museums', 'Speciality Museums']",https://www.tripadvisor.ca/Attraction_Review-g155016-d4090074-Reviews-Anderson_Farm_Museum-Sudbury_Northeastern_Ontario_Ontario.html
287,390,Sudbury Theatre Centre,"170 Shaughnessy St, Sudbury, Ontario",46.48903,-80.99000507498718,T287,4.5,"['Theatres', 'Theatres']",https://www.tripadvisor.ca/Attraction_Review-g155016-d3307969-Reviews-Sudbury_Theatre_Centre-Sudbury_Northeastern_Ontario_Ontario.html
288,392,Northern Ontario Railroad Museum & Heritage Centre,"26 Bloor St, Capreol, Ontario",46.7091605,-80.9242043,T288,4.6,"['History Museums', 'History Museums']",https://www.tripadvisor.ca/Attraction_Review-g7113380-d4063667-Reviews-Northern_Ontario_Railroad_Museum_Heritage_Centre-Capreol_Sudbury_Northeastern_On.html
289,393,Inco Superstack,"18 Rink St, Sudbury, Ontario",46.4773486,-81.06343829040455,T289,3.5,"['Points of Interest & Landmarks', 'Points of Interest & Landmarks']",https://www.tripadvisor.ca/Attraction_Review-g155016-d4404582-Reviews-Inco_Superstack-Sudbury_Northeastern_Ontario_Ontario.html
290,394,Kalmo Park Conservation Area,"Sandy Beach Road, Val Caron, Ontario",46.6098416,-80.9756324,T290,4.4,"['Nature & Wildlife Areas', 'Parks', 'Nature & Wildlife Areas', 'Parks']",https://www.tripadvisor.ca/Attraction_Review-g4045236-d6602273-Reviews-Kalmo_Park_Conservation_Area-Val_Caron_Sudbury_Northeastern_Ontario_Ontario.html
291,395,Rotary Park Lookout,"744 Beatrice Cres, Sudbury, Ontario",46.511008950000004,-80.960319,T291,4.1,"['Points of Interest & Landmarks', 'Parks', 'Points of Interest & Landmarks', 'Parks']",https://www.tripadvisor.ca/Attraction_Review-g155016-d4066554-Reviews-Rotary_Park_Lookout-Sudbury_Northeastern_Ontario_Ontario.html
292,396,Sudbury Community Arena,"240 Elgin St, Sudbury, Ontario",46.4883263,-80.9931897,T292,3.3,"['Arenas & Stadiums', 'Arenas & Stadiums']",https://www.tripadvisor.ca/Attraction_Review-g155016-d4459718-Reviews-Sudbury_Community_Arena-Sudbury_Northeastern_Ontario_Ontario.html
293,399,Art Gallery of Sudbury,"251 John St, Sudbury, Ontario",46.4833756,-80.9892339,T293,3.7,"['Art Galleries', 'Art Galleries']",https://www.tripadvisor.ca/Attraction_Review-g155016-d3307972-Reviews-Art_Gallery_of_Sudbury-Sudbury_Northeastern_Ontario_Ontario.html
294,400,Crosscut Distillery,"1347 Kelly Lake, Sudbury, Ontario",46.4646228,-81.0281479,T294,5.0,"['Distilleries', 'Distilleries']",https://www.tripadvisor.ca/Attraction_Review-g155016-d14096948-Reviews-Crosscut_Distillery-Sudbury_Northeastern_Ontario_Ontario.html
295,402,Wagonwheel Ranch,"2200 Kenneth Dr, Val Therese, Ontario",46.6524283,-81.0650014,T295,5.0,"['Ranches', 'Ranches']",https://www.tripadvisor.ca/Attraction_Review-g15339486-d4755369-Reviews-Wagonwheel_Ranch-Val_Therese_Sudbury_Northeastern_Ontario_Ontario.html
296,403,OLG Slots at Sudbury Downs,"400 Bonin St, Chelmsford, Ontario",46.5795121,-81.1664579,T296,3.1,"['Casinos', 'Horse Tracks', 'Casinos', 'Horse Tracks']",https://www.tripadvisor.ca/Attraction_Review-g2534428-d9749507-Reviews-OLG_Slots_at_Sudbury_Downs-Chelmsford_Sudbury_Northeastern_Ontario_Ontario.html
297,404,Flour Mill Museum,"245 St. Charles, Sudbury, Ontario",46.363041,-80.417175,T297,4.0,"['Speciality Museums', 'Speciality Museums']",https://www.tripadvisor.ca/Attraction_Review-g155016-d4293408-Reviews-Flour_Mill_Museum-Sudbury_Northeastern_Ontario_Ontario.html
298,405,St. Germain Farm Museum,"679 Dominion Dr, Sudbury, Ontario",46.63864637447397,-80.95163126640199,T298,4.5,"['Speciality Museums', 'Speciality Museums']",https://www.tripadvisor.ca/Attraction_Review-g155016-d6599508-Reviews-St_Germain_Farm_Museum-Sudbury_Northeastern_Ontario_Ontario.html
299,406,Theatre Cambrian,"40 Eyre St, Sudbury, Ontario",46.49241245,-81.00801170724004,T299,4.2,"['Theatres', 'Theatres']",https://www.tripadvisor.ca/Attraction_Review-g155016-d4458101-Reviews-Theatre_Cambrian-Sudbury_Northeastern_Ontario_Ontario.html
300,407,The Shoals Provincial Park,"Highway 101 Chapleau, Sudbury, Ontario",47.845632,-83.4018741,T300,3.0,"['Parks', 'Parks']",https://www.tripadvisor.ca/Attraction_Review-g155016-d5121218-Reviews-The_Shoals_Provincial_Park-Sudbury_Northeastern_Ontario_Ontario.html
301,408,Wakami Lake Provincial Park,"Highway 667 Sultan, Sudbury, Ontario",47.5887095,-82.7795742,T301,4.5,"['Parks', 'Parks']",https://www.tripadvisor.ca/Attraction_Review-g155016-d6484887-Reviews-Wakami_Lake_Provincial_Park-Sudbury_Northeastern_Ontario_Ontario.html
302,409,Southridge Mall,"Southridge Mall 1933, Sudbury, Ontario",46.4493684,-81.00275766299788,T302,1.0,"['Shopping Malls', 'Shopping Malls']",https://www.tripadvisor.ca/Attraction_Review-g155016-d14116511-Reviews-Southridge_Mall-Sudbury_Northeastern_Ontario_Ontario.html
303,410,Copper Cliff Museum,"26 Balsam Street, Sudbury, Ontario",46.641192475000004,-81.39121610000001,T303,2.5,"['Speciality Museums', 'Speciality Museums']",https://www.tripadvisor.ca/Attraction_Review-g155016-d4293405-Reviews-Copper_Cliff_Museum-Sudbury_Northeastern_Ontario_Ontario.html
304,411,Pine Ridge Ranch,"5000 Dupuis Dr, Sudbury, Ontario",46.6516218,-80.8824465,T304,2.0,"['Ranches', 'Ranches']",https://www.tripadvisor.ca/Attraction_Review-g155016-d4063700-Reviews-Pine_Ridge_Ranch-Sudbury_Northeastern_Ontario_Ontario.html
305,412,Galerie Du Nouvel-Ontario,"54 Elgin St, Sudbury, Ontario",46.4927656,-80.9963426,T305,4.5,"['Art Galleries', 'Art Galleries']",https://www.tripadvisor.ca/Attraction_Review-g155016-d4090082-Reviews-Galerie_Du_Nouvel_Ontario-Sudbury_Northeastern_Ontario_Ontario.html
306,413,Sudbury Symphony Orchestra,"303 York St, Sudbury, Ontario",46.4756397,-81.0068087,T306,5.0,"['Symphonies', 'Symphonies']",https://www.tripadvisor.ca/Attraction_Review-g155016-d4086185-Reviews-Sudbury_Symphony_Orchestra-Sudbury_Northeastern_Ontario_Ontario.html
307,414,Eat Local Sudbury Co-op,"176 Larch St, Sudbury, Ontario",46.4914421,-80.9906122,T307,4.0,"['Farmers Markets', 'Farmers Markets']",https://www.tripadvisor.ca/Attraction_Review-g155016-d10172722-Reviews-Eat_Local_Sudbury_Co_op-Sudbury_Northeastern_Ontario_Ontario.html
308,415,Le Theatre du Nouvel-Ontario,"21 Lasalle Blvd, Sudbury, Ontario",46.5170977,-80.99327056547148,T308,4.0,"['Theatres', 'Theatres']",https://www.tripadvisor.ca/Attraction_Review-g155016-d4178279-Reviews-Le_Theatre_du_Nouvel_Ontario-Sudbury_Northeastern_Ontario_Ontario.html
309,416,Stopciati Gallery,"153 Applegrove St, Sudbury, Ontario",46.4916922,-81.00168975,T309,4.0,"['Art Galleries', 'Art Galleries']",https://www.tripadvisor.ca/Attraction_Review-g155016-d3611640-Reviews-Stopciati_Gallery-Sudbury_Northeastern_Ontario_Ontario.html
310,417,Sudbury Region Police Museum,"190 Brady St, Sudbury, Ontario",46.4899039,-80.99104669886509,T310,3.0,"['Speciality Museums', 'Speciality Museums']",https://www.tripadvisor.ca/Attraction_Review-g155016-d6918394-Reviews-Sudbury_Region_Police_Museum-Sudbury_Northeastern_Ontario_Ontario.html
311,420,Church of Our Lady Immaculate,"28 Norfolk St, Guelph, Ontario",43.54303195,-80.25165561337639,T311,4.7,"['Churches & Cathedrals', 'Churches & Cathedrals']",https://www.tripadvisor.ca/Attraction_Review-g154989-d3377104-Reviews-Church_of_Our_Lady_Immaculate-Guelph_Ontario.html
312,421,Riverside Park,"709 Woolwich St, Guelph, Ontario",43.5613214,-80.2719566,T312,4.5,"['Parks', 'Parks']",https://www.tripadvisor.ca/Attraction_Review-g154989-d4916258-Reviews-Riverside_Park-Guelph_Ontario.html
313,423,Aberfoyle Antique Market,"57 Brock Road, Guelph, Ontario",43.4989468,-80.1861566,T313,4.4,"['Flea & Street Markets', 'Flea & Street Markets']",https://www.tripadvisor.ca/Attraction_Review-g154989-d4106782-Reviews-Aberfoyle_Antique_Market-Guelph_Ontario.html
314,424,University of Guelph Arboretum,"College Avenue East, Guelph, Ontario",43.542994,-80.2178156,T314,4.4,"['Points of Interest & Landmarks', 'Points of Interest & Landmarks']",https://www.tripadvisor.ca/Attraction_Review-g154989-d4039769-Reviews-University_of_Guelph_Arboretum-Guelph_Ontario.html
315,425,River Run Centre,"35 Woolwich St, Guelph, Ontario",43.547455,-80.24522,T315,4.4,"['Theatres', 'Theatres']",https://www.tripadvisor.ca/Attraction_Review-g154989-d2649420-Reviews-River_Run_Centre-Guelph_Ontario.html
316,426,Guelph Civic Museum,"52 Norfolk St, Guelph, Ontario",43.54371165,-80.25064155,T316,4.4,"['Points of Interest & Landmarks', 'History Museums', 'Points of Interest & Landmarks', 'History Museums']",https://www.tripadvisor.ca/Attraction_Review-g154989-d4039708-Reviews-Guelph_Civic_Museum-Guelph_Ontario.html
317,427,Guelph Market Square,"1 Carden St, Guelph, Ontario",43.5432147,-80.24872349609635,T317,4.4,"['Fountains', 'Fountains']",https://www.tripadvisor.ca/Attraction_Review-g154989-d3435199-Reviews-Guelph_Market_Square-Guelph_Ontario.html
318,428,Guelph Lake Conservation Area,"7743 Conservation Rd, Guelph, Ontario",43.5825268,-80.2893721,T318,3.7,"['Nature & Wildlife Areas', 'Nature & Wildlife Areas']",https://www.tripadvisor.ca/Attraction_Review-g154989-d625914-Reviews-Guelph_Lake_Conservation_Area-Guelph_Ontario.html
319,429,McCrae House,"108 Water St, Guelph, Ontario",43.536165,-80.24448875000002,T319,4.4,"['Historic Sites', 'Historic Sites']",https://www.tripadvisor.ca/Attraction_Review-g154989-d3377099-Reviews-McCrae_House-Guelph_Ontario.html
320,431,Royal City Park,"139 Gordon Street, Guelph, Ontario",43.5382335,-80.241356,T320,4.4,"['Parks', 'Parks']",https://www.tripadvisor.ca/Attraction_Review-g154989-d5006741-Reviews-Royal_City_Park-Guelph_Ontario.html
321,432,"St. George's Anglican Church, Guelph","99 Woolwich St, Guelph, Ontario",43.547903649999995,-80.24849062001334,T321,4.7,"['Churches & Cathedrals', 'Churches & Cathedrals']",https://www.tripadvisor.ca/Attraction_Review-g154989-d8148111-Reviews-St_George_s_Anglican_Church_Guelph-Guelph_Ontario.html
322,433,The Sleeman Centre,"50 Woolwich St, Guelph, Ontario",43.54728914444444,-80.24756751111111,T322,4.0,"['Arenas & Stadiums', 'Arenas & Stadiums']",https://www.tripadvisor.ca/Attraction_Review-g154989-d3348409-Reviews-The_Sleeman_Centre-Guelph_Ontario.html
323,434,Guelph Farmers' Market,"2 Gordon Street, Guelph, Ontario",43.5423798,-80.2483870273758,T323,3.9,"['Farmers Markets', 'Farmers Markets']",https://www.tripadvisor.ca/Attraction_Review-g154989-d4106784-Reviews-Guelph_Farmers_Market-Guelph_Ontario.html
324,435,Stone Road Mall,"Stone Road Mall, Guelph, Ontario",43.5183963,-80.23863209908859,T324,3.9,"['Shopping Malls', 'Shopping Malls']",https://www.tripadvisor.ca/Attraction_Review-g154989-d4335073-Reviews-Stone_Road_Mall-Guelph_Ontario.html
325,436,Wellington Brewery,"950 Woodlawn Rd, Guelph, Ontario",43.5342268,-80.3196688,T325,4.5,"['Breweries', 'Breweries']",https://www.tripadvisor.ca/Attraction_Review-g154989-d677942-Reviews-Wellington_Brewery-Guelph_Ontario.html
326,437,Sleeman Brewery,"551 Clair Rd, Guelph, Ontario",43.4870846,-80.2069182,T326,4.6,"['Breweries', 'Breweries']",https://www.tripadvisor.ca/Attraction_Review-g154989-d8533093-Reviews-Sleeman_Brewery-Guelph_Ontario.html
327,438,Royal City Brewing Company,"199 Victoria Rd, Guelph, Ontario",43.5522434,-80.2250167,T327,4.4,"['Breweries', 'Breweries']",https://www.tripadvisor.ca/Attraction_Review-g154989-d8517378-Reviews-Royal_City_Brewing_Company-Guelph_Ontario.html
328,439,StoneHammer Brewing,"355 Elmira Road, Guelph, Ontario",43.5286853,-80.3016731,T328,5.0,"['Breweries', 'Breweries']",https://www.tripadvisor.ca/Attraction_Review-g154989-d4103205-Reviews-StoneHammer_Brewing-Guelph_Ontario.html
329,440,Guelph Public Library,"100 Norfolk St, Guelph, Ontario",43.5455981,-80.2525102,T329,4.6,"['Points of Interest & Landmarks', 'Libraries', 'Points of Interest & Landmarks', 'Libraries']",https://www.tripadvisor.ca/Attraction_Review-g154989-d5002155-Reviews-Guelph_Public_Library-Guelph_Ontario.html
330,441,Exhibition Park,"81 London Road, Guelph, Ontario",43.54841245263158,-80.2595773,T330,5.0,"['Parks', 'Playgrounds', 'Parks', 'Playgrounds']",https://www.tripadvisor.ca/Attraction_Review-g154989-d15027204-Reviews-Exhibition_Park-Guelph_Ontario.html
331,442,Funmazing Playcentre,"785 Imperial Rd, Guelph, Ontario",43.5478543,-80.3078019,T331,3.8,"['Playgrounds', 'Playgrounds']",https://www.tripadvisor.ca/Attraction_Review-g154989-d4757186-Reviews-Funmazing_Playcentre-Guelph_Ontario.html
332,443,Guelph Grotto Climbing Company,"199 Victoria Rd, Guelph, Ontario",43.5522434,-80.2250167,T332,4.4,"['Sports Complexes', 'Sports Complexes']",https://www.tripadvisor.ca/Attraction_Review-g154989-d3976947-Reviews-Guelph_Grotto_Climbing_Company-Guelph_Ontario.html
333,444,Len's Mill Store,"234 Victoria Rd, Guelph, Ontario",43.5511604,-80.22253418214285,T333,3.3,"['Factory Outlets', 'Factory Outlets']",https://www.tripadvisor.ca/Attraction_Review-g154989-d10716092-Reviews-Len_s_Mill_Store-Guelph_Ontario.html
334,445,Physics Observatory Telescope,"50 Stone Rd, Guelph, Ontario",43.526658,-80.2245778,T334,4.9,"['Educational sites', 'Educational sites']",https://www.tripadvisor.ca/Attraction_Review-g154989-d8479681-Reviews-Physics_Observatory_Telescope-Guelph_Ontario.html
335,446,Dixon's Distilled Spirits,"355 Elmira Rd, Guelph, Ontario",43.5286853,-80.3016731,T335,4.2,"['Distilleries', 'Distilleries']",https://www.tripadvisor.ca/Attraction_Review-g154989-d12387069-Reviews-Dixon_s_Distilled_Spirits-Guelph_Ontario.html
336,449,St. Andrew's Presbyterian Church,"161 Norfolk St, Guelph, Ontario",43.54753175,-80.25360097961907,T336,4.3,"['Sacred & Religious Sites', 'Churches & Cathedrals', 'Sacred & Religious Sites', 'Churches & Cathedrals']",https://www.tripadvisor.ca/Attraction_Review-g154989-d8148104-Reviews-St_Andrew_s_Presbyterian_Church-Guelph_Ontario.html
337,450,Hammond Museum of Radio,"595 Southgate Dr, Guelph, Ontario",43.4943038,-80.21532254832371,T337,4.3,"['Speciality Museums', 'Speciality Museums']",https://www.tripadvisor.ca/Attraction_Review-g154989-d7675237-Reviews-Hammond_Museum_of_Radio-Guelph_Ontario.html
338,451,Fixed Gear Brewing Co.,"20 Alma St, Guelph, Ontario",43.5370229,-80.2642493,T338,4.7,"['Breweries', 'Breweries']",https://www.tripadvisor.ca/Attraction_Review-g154989-d17626077-Reviews-Fixed_Gear_Brewing_Co-Guelph_Ontario.html
339,452,Shady Grove Maple Co.,"6640 Fife Rd, Guelph, Ontario",43.5187634,-80.2688722,T339,4.4,"['Farms', 'Farms']",https://www.tripadvisor.ca/Attraction_Review-g154989-d6563259-Reviews-Shady_Grove_Maple_Co-Guelph_Ontario.html
340,453,Art Gallery of Guelph,"358 Gordon St, Guelph, Ontario",43.5330827,-80.23301210090301,T340,4.1,"['Art Galleries', 'Art Galleries']",https://www.tripadvisor.ca/Attraction_Review-g154989-d2507193-Reviews-Art_Gallery_of_Guelph-Guelph_Ontario.html
341,454,Hanlon Creek Park,"505 Kortright Road, Guelph, Ontario",43.5220566,-80.2126836,T341,4.3,"['Parks', 'Playgrounds', 'Parks', 'Playgrounds']",https://www.tripadvisor.ca/Attraction_Review-g154989-d12959209-Reviews-Hanlon_Creek_Park-Guelph_Ontario.html
342,455,Guelph Little Theatre,"176 Morris St, Guelph, Ontario",43.5469749,-80.2309797,T342,5.0,"['Theatres', 'Theatres']",https://www.tripadvisor.ca/Attraction_Review-g154989-d12492141-Reviews-Guelph_Little_Theatre-Guelph_Ontario.html
343,456,Garden of Grace,"28 Norfolk St, Guelph, Ontario",43.54303195,-80.25165561337639,T343,5.0,"['Points of Interest & Landmarks', 'Monuments & Statues', 'Scenic Walking Areas', 'Points of Interest & Landmarks', 'Monuments & Statues', 'Scenic Walking Areas']",https://www.tripadvisor.ca/Attraction_Review-g154989-d18187780-Reviews-Garden_of_Grace-Guelph_Ontario.html
344,457,Masterpiece Wonkies and Art Gallery,"7100 Fife Rd, Guelph, Ontario",43.50489387049294,-80.28812996986017,T344,5.0,"['Art Galleries', 'Art Galleries']",https://www.tripadvisor.ca/Attraction_Review-g154989-d7235301-Reviews-Masterpiece_Wonkies_and_Art_Gallery-Guelph_Ontario.html
345,459,Victoria Road Recreation Centre,"151 Victoria Rd, Guelph, Ontario",43.563786,-80.240291,T345,4.0,"['Sports Complexes', 'Sports Complexes']",https://www.tripadvisor.ca/Attraction_Review-g154989-d17529194-Reviews-Victoria_Road_Recreation_Centre-Guelph_Ontario.html
346,460,"Royal City Church, Guelph","50 Quebec St, Guelph, Ontario",43.54593585,-80.25036095,T346,4.5,"['Churches & Cathedrals', 'Churches & Cathedrals']",https://www.tripadvisor.ca/Attraction_Review-g154989-d8278202-Reviews-Royal_City_Church_Guelph-Guelph_Ontario.html
347,461,"Knox Presbyterian Church, Guelph","20 Quebec St, Guelph, Ontario",43.545816450000004,-80.2511606888041,T347,4.2,"['Churches & Cathedrals', 'Churches & Cathedrals']",https://www.tripadvisor.ca/Attraction_Review-g154989-d8275203-Reviews-Knox_Presbyterian_Church_Guelph-Guelph_Ontario.html
348,463,Byng Island Conservation Area,"4969 Haldimand Road, Dunnville, Ontario",42.8986116,-79.6510082,T348,4.0,"['Nature & Wildlife Areas', 'Nature & Wildlife Areas']",https://www.tripadvisor.ca/Attraction_Review-g793718-d625909-Reviews-Byng_Island_Conservation_Area-Dunnville_Haldimand_Ontario.html
349,465,Richardson's Farm and Market,"131 River Rd, Dunnville, Ontario",42.9025328,-79.617115,T349,4.8,"['Farms', 'Farms']",https://www.tripadvisor.ca/Attraction_Review-g793718-d6215178-Reviews-Richardson_s_Farm_and_Market-Dunnville_Haldimand_Ontario.html
350,466,Snyder's Sweet Corn,"1863 Haldimand Road, Caledonia, Ontario",43.0838007,-79.9204191,T350,4.8,"['Farms', 'Farms']",https://www.tripadvisor.ca/Attraction_Review-g676142-d12726707-Reviews-Snyder_s_Sweet_Corn-Caledonia_Haldimand_Ontario.html
351,467,Muddy the Mudcat Statue,"Main Street West, Dunnville, Ontario",42.9057288,-79.6305844,T351,3.9,"['Points of Interest & Landmarks', 'Monuments & Statues', 'Points of Interest & Landmarks', 'Monuments & Statues']",https://www.tripadvisor.ca/Attraction_Review-g793718-d7125467-Reviews-Muddy_the_Mudcat_Statue-Dunnville_Haldimand_Ontario.html
352,468,Kinsmen Park Trail,"49 Caithness Street, Caledonia, Ontario",43.0746951,-79.9583794,T352,4.8,"['Parks', 'Playgrounds', 'Parks', 'Playgrounds']",https://www.tripadvisor.ca/Attraction_Review-g676142-d10692278-Reviews-Kinsmen_Park_Trail-Caledonia_Haldimand_Ontario.html
353,470,No. 6 Rcaf Dunnville Museum,"536 Port Maitland, Dunnville, Ontario",42.8856463,-79.6027792,T353,4.5,"['Speciality Museums', 'Speciality Museums']",https://www.tripadvisor.ca/Attraction_Review-g793718-d6498246-Reviews-No_6_Rcaf_Dunnville_Museum-Dunnville_Haldimand_Ontario.html
354,473,Ruthven Park National Historic Site,"243 Haldimand Highway, Cayuga, Ontario",42.97910525,-79.87523101016885,T354,4.6,"['Historic Sites', 'Historic Sites']",https://www.tripadvisor.ca/Attraction_Review-g2044824-d622516-Reviews-Ruthven_Park_National_Historic_Site-Cayuga_Haldimand_Ontario.html
355,474,Cottonwood Mansion Museum,"740 Haldimand Road, Selkirk, Ontario",42.8374174,-79.933283,T355,4.8,"['Speciality Museums', 'Historic Sites', 'Architectural Buildings', 'Speciality Museums', 'Historic Sites', 'Architectural Buildings']",https://www.tripadvisor.ca/Attraction_Review-g3363963-d3512801-Reviews-Cottonwood_Mansion_Museum-Selkirk_Haldimand_Ontario.html
356,476,Caledonia Lions Pool & Splash Pad,"25 Caithness St, Caledonia, Ontario",43.07361795405406,-79.9514789891892,T356,4.0,"['Sports Complexes', 'Sports Complexes']",https://www.tripadvisor.ca/Attraction_Review-g676142-d10532202-Reviews-Caledonia_Lions_Pool_Splash_Pad-Caledonia_Haldimand_Ontario.html
357,477,Concession Road Brewing Co.,"17 Talbot St, Jarvis, Ontario",42.8844313,-80.11393,T357,4.9,"['Breweries', 'Breweries']",https://www.tripadvisor.ca/Attraction_Review-g3834923-d14528902-Reviews-Concession_Road_Brewing_Co-Jarvis_Haldimand_Ontario.html
358,478,Caledonia Old Mill,"146 Forfar St, Caledonia, Ontario",43.0716568,-79.958229,T358,3.9,"['Points of Interest & Landmarks', 'Points of Interest & Landmarks']",https://www.tripadvisor.ca/Attraction_Review-g676142-d6498245-Reviews-Caledonia_Old_Mill-Caledonia_Haldimand_Ontario.html
359,481,Port Maitland Lighthouse,"Port Maitland Road, Port Maitland, Ontario",42.8529569,-79.5797869,T359,3.8,"['Points of Interest & Landmarks', 'Lighthouses', 'Points of Interest & Landmarks', 'Lighthouses']",https://www.tripadvisor.ca/Attraction_Review-g20895285-d6913384-Reviews-Port_Maitland_Lighthouse-Port_Maitland_Haldimand_Ontario.html
360,483,Blueberry Knoll Berry Farm,"1091 Hutchinson Rd, Lowbanks, Ontario",42.8841466,-79.4579132,T360,5.0,"['Farms', 'Farms']",https://www.tripadvisor.ca/Attraction_Review-g3205097-d12486694-Reviews-Blueberry_Knoll_Berry_Farm-Lowbanks_Haldimand_Ontario.html
361,484,Wilson MacDonald Memorial School Museum,"3513 Rainham Rd, Selkirk, Ontario",42.83279347759206,-79.9368162232959,T361,4.0,"['History Museums', 'History Museums']",https://www.tripadvisor.ca/Attraction_Review-g3363963-d4520798-Reviews-Wilson_MacDonald_Memorial_School_Museum-Selkirk_Haldimand_Ontario.html
362,485,Haldimand Museum & Archives,"8 Echo Street, Cayuga, Ontario",42.9535523,-79.8583186,T362,4.0,"['Speciality Museums', 'Speciality Museums']",https://www.tripadvisor.ca/Attraction_Review-g2044824-d4242726-Reviews-Haldimand_Museum_Archives-Cayuga_Haldimand_Ontario.html
363,486,Edinburgh Square Heritage and Cultural Centre,"80 Caithness St, Caledonia, Ontario",43.0744084,-79.9546576,T363,3.0,"['History Museums', 'History Museums']",https://www.tripadvisor.ca/Attraction_Review-g676142-d4504637-Reviews-Edinburgh_Square_Heritage_and_Cultural_Centre-Caledonia_Haldimand_Ontario.html
364,487,Byng Island Conservation Area,"4969 Haldimand Road, Dunnville, Ontario",42.8986116,-79.6510082,T364,4.0,"['Nature & Wildlife Areas', 'Nature & Wildlife Areas']",https://www.tripadvisor.ca/Attraction_Review-g793718-d625909-Reviews-Byng_Island_Conservation_Area-Dunnville_Haldimand_Ontario.html
365,489,Richardson's Farm and Market,"131 River Rd, Dunnville, Ontario",42.9025328,-79.617115,T365,4.8,"['Farms', 'Farms']",https://www.tripadvisor.ca/Attraction_Review-g793718-d6215178-Reviews-Richardson_s_Farm_and_Market-Dunnville_Haldimand_Ontario.html
366,490,Snyder's Sweet Corn,"1863 Haldimand Road, Caledonia, Ontario",43.0838007,-79.9204191,T366,4.8,"['Farms', 'Farms']",https://www.tripadvisor.ca/Attraction_Review-g676142-d12726707-Reviews-Snyder_s_Sweet_Corn-Caledonia_Haldimand_Ontario.html
367,491,Muddy the Mudcat Statue,"Main Street West, Dunnville, Ontario",42.9057288,-79.6305844,T367,3.9,"['Points of Interest & Landmarks', 'Monuments & Statues', 'Points of Interest & Landmarks', 'Monuments & Statues']",https://www.tripadvisor.ca/Attraction_Review-g793718-d7125467-Reviews-Muddy_the_Mudcat_Statue-Dunnville_Haldimand_Ontario.html
368,492,Kinsmen Park Trail,"49 Caithness Street, Caledonia, Ontario",43.0746951,-79.9583794,T368,4.8,"['Parks', 'Playgrounds', 'Parks', 'Playgrounds']",https://www.tripadvisor.ca/Attraction_Review-g676142-d10692278-Reviews-Kinsmen_Park_Trail-Caledonia_Haldimand_Ontario.html
369,494,No. 6 Rcaf Dunnville Museum,"536 Port Maitland, Dunnville, Ontario",42.8856463,-79.6027792,T369,4.5,"['Speciality Museums', 'Speciality Museums']",https://www.tripadvisor.ca/Attraction_Review-g793718-d6498246-Reviews-No_6_Rcaf_Dunnville_Museum-Dunnville_Haldimand_Ontario.html
370,497,Ruthven Park National Historic Site,"243 Haldimand Highway, Cayuga, Ontario",42.97910525,-79.87523101016885,T370,4.6,"['Historic Sites', 'Historic Sites']",https://www.tripadvisor.ca/Attraction_Review-g2044824-d622516-Reviews-Ruthven_Park_National_Historic_Site-Cayuga_Haldimand_Ontario.html
